cnt,flyState,setpoint.h [m],setpoint.pitch [deg],setpoint.roll [deg],setpoint.yaw [deg],motval_avg [frac],motval_0 [frac],motval_1 [frac],motval_2 [frac],motval_3 [frac],hor_velocities.xv,hor_velocities.yv,hor_velocities.dt,hor_velocities.seqNum,att.ts [s],att.ax [m/s^2],att.ay [m/s^2],att.az [m/s^2],att.gx [deg/s],att.gx_kalman [deg/s],att.gx_bias_kalman [deg/s],att.gy [deg/s],att.gy_kalman [deg/s],att.gy_bias_kalman [deg/s],att.gz [deg/s],att.hv [m/sec],att.h [m],att.pitch [deg],att.roll [deg],att.yaw [deg],xPos [m],yPos [m],targetXVel [m/s],targetYVel [m/s],targetPitch [deg],targetRoll [deg],adj_pitch,adj_roll,adj_yaw,adj_h
1,0,0.000000,0.000000,0.000000,0.000000,0.000000,0.000000,0.000000,0.000000,0.000000,0.000000,0.000000,0.000000,0,946691141.929931,-39.853123,39.699844,-48.743435,3.784295,0.000000,0.000000,4.455703,0.000000,0.000000,-0.549333,0.000000,0.000000,0.000000,0.000000,0.000000,0.000000,0.000000,0.000000,0.000000,0.000000,0.000000,0.000000,0.000000,0.000000,0.000000
2,1,0.000000,0.000000,0.000000,0.000000,0.000000,0.000000,0.000000,0.000000,0.000000,-0.631552,0.631552,0.032409,5,946691142.289733,0.039855,0.591282,-10.059082,-2.685324,-2.685323,-0.000001,0.210883,0.210884,-0.000000,0.042421,10.234000,0.818720,-0.187116,-0.961675,0.037215,0.000000,0.000000,0.000000,0.000000,0.000000,0.000000,0.000000,0.000000,0.000000,0.000000
3,1,0.000000,0.000000,0.000000,0.000000,0.000000,0.000000,0.000000,0.000000,0.000000,-0.631552,0.631552,0.032409,5,946691142.290130,0.116495,0.591282,-10.059082,-2.807398,-2.807393,-0.000005,0.882290,0.882295,-0.000001,-0.018616,10.234000,0.818720,-0.186322,-0.960534,0.037208,0.000000,0.000000,0.000000,0.000000,0.000000,0.000000,0.000000,0.000000,0.000000,0.000000
4,1,0.000000,0.000000,0.000000,0.000000,0.000000,0.000000,0.000000,0.000000,0.000000,-0.631552,0.631552,0.032409,5,946691142.290374,0.193136,0.514642,-9.982441,-2.990509,-2.990499,-0.000010,1.553697,1.553707,-0.000002,0.164495,10.234000,0.818720,-0.185268,-0.959224,0.037248,0.000000,0.000000,0.000000,0.000000,0.000000,0.000000,0.000000,0.000000,0.000000,0.000000
5,1,0.000000,0.000000,0.000000,0.000000,0.000000,0.000000,0.000000,0.000000,0.000000,-0.631552,0.631552,0.032409,5,946691142.290588,0.193136,0.514642,-9.905801,-3.173620,-3.173604,-0.000016,2.286142,2.286157,-0.000004,0.286569,10.234000,0.818720,-0.184100,-0.957852,0.037309,0.000000,0.000000,0.000000,0.000000,0.000000,0.000000,0.000000,0.000000,0.000000,0.000000
6,1,0.000000,0.000000,0.000000,0.000000,0.000000,0.000000,0.000000,0.000000,0.000000,-0.631552,0.631552,0.032409,5,946691142.290771,0.269776,0.514642,-9.905801,-3.051546,-3.051523,-0.000023,3.079623,3.079646,-0.000008,0.408643,10.234000,0.818720,-0.182628,-0.956361,0.037384,0.000000,0.000000,0.000000,0.000000,0.000000,0.000000,0.000000,0.000000,0.000000,0.000000
7,1,0.000000,0.000000,0.000000,0.000000,0.000000,0.000000,0.000000,0.000000,0.000000,-0.631552,0.631552,0.032409,5,946691142.290985,0.269776,0.514642,-9.829160,-2.868435,-2.868403,-0.000032,3.751030,3.751062,-0.000012,0.469680,10.234000,0.818720,-0.180911,-0.954913,0.037484,0.000000,0.000000,0.000000,0.000000,0.000000,0.000000,0.000000,0.000000,0.000000,0.000000
8,1,0.000000,0.000000,0.000000,0.000000,0.000000,0.000000,0.000000,0.000000,0.000000,-0.631552,0.631552,0.032409,5,946691142.291168,0.346417,0.514642,-9.829160,-2.807398,-2.807356,-0.000042,4.361400,4.361442,-0.000017,0.652791,10.234000,0.818720,-0.178966,-0.953366,0.037604,0.000000,0.000000,0.000000,0.000000,0.000000,0.000000,0.000000,0.000000,0.000000,0.000000
9,1,0.000000,0.000000,0.000000,0.000000,0.000000,0.000000,0.000000,0.000000,0.000000,-0.631552,0.631552,0.032409,5,946691142.291351,0.346417,0.438001,-9.752520,-2.685324,-2.685272,-0.000051,4.971770,4.971822,-0.000023,0.591754,10.234000,0.818720,-0.176903,-0.952019,0.037712,0.000000,0.000000,0.000000,0.000000,0.000000,0.000000,0.000000,0.000000,0.000000,0.000000
10,1,0.000000,0.000000,0.000000,0.000000,0.000000,0.000000,0.000000,0.000000,0.000000,-0.632338,0.632338,0.032409,5,946691142.291534,0.346417,0.438001,-9.675879,-2.319102,-2.319040,-0.000062,5.582141,5.582203,-0.000030,0.530717,10.246751,0.819740,-0.174721,-0.950596,0.037809,0.000000,0.000000,0.000000,0.000000,0.000000,0.000000,0.000000,0.000000,0.000000,0.000000
11,1,0.000000,0.000000,0.000000,0.000000,0.000000,0.000000,0.000000,0.000000,0.000000,-0.632338,0.632338,0.032409,5,946691142.291748,0.423058,0.438001,-9.599238,-1.708732,-1.708657,-0.000074,5.948363,5.948437,-0.000039,0.103458,10.246751,0.819740,-0.172041,-0.949104,0.037831,0.000000,0.000000,0.000000,0.000000,0.000000,0.000000,0.000000,0.000000,0.000000,0.000000
12,1,0.000000,0.000000,0.000000,0.000000,0.000000,0.000000,0.000000,0.000000,0.000000,-0.632338,0.632338,0.032409,5,946691142.291931,0.346417,0.361360,-9.599238,-1.342509,-1.342424,-0.000086,6.314585,6.314671,-0.000047,-0.079653,10.246751,0.819740,-0.169719,-0.947730,0.037817,0.000000,0.000000,0.000000,0.000000,0.000000,0.000000,0.000000,0.000000,0.000000,0.000000
13,1,0.000000,0.000000,0.000000,0.000000,0.000000,0.000000,0.000000,0.000000,0.000000,-0.632338,0.632338,0.032409,5,946691142.292114,0.346417,0.361360,-9.522597,-1.037324,-1.037226,-0.000098,6.497696,6.497794,-0.000056,-0.384838,10.246751,0.819740,-0.167356,-0.946293,0.037746,0.000000,0.000000,0.000000,0.000000,0.000000,0.000000,0.000000,0.000000,0.000000,0.000000
14,1,0.000000,0.000000,0.000000,0.000000,0.000000,0.000000,0.000000,0.000000,0.000000,-0.632338,0.632338,0.032409,5,946691142.292449,0.269776,0.361360,-9.522597,-0.487991,-0.487879,-0.000112,6.802881,6.802993,-0.000064,-0.445875,10.246751,0.819740,-0.164145,-0.944829,0.037597,0.000000,0.000000,0.000000,0.000000,0.000000,0.000000,0.000000,0.000000,0.000000,0.000000
15,1,0.000000,0.000000,0.000000,0.000000,0.000000,0.000000,0.000000,0.000000,0.000000,-0.632338,0.632338,0.032409,5,946691142.292663,0.269776,0.361360,-9.445957,0.061342,0.061469,-0.000127,7.047029,7.047156,-0.000073,-0.384838,10.246751,0.819740,-0.161699,-0.943180,0.037515,0.000000,0.000000,0.000000,0.000000,0.000000,0.000000,0.000000,0.000000,0.000000,0.000000
16,1,0.000000,0.000000,0.000000,0.000000,0.000000,0.000000,0.000000,0.000000,0.000000,-0.632338,0.632338,0.032409,5,946691142.292846,0.193136,0.361360,-9.445957,0.549638,0.549781,-0.000143,7.352215,7.352358,-0.000080,-0.140690,10.246751,0.819740,-0.159659,-0.941445,0.037489,0.000000,0.000000,0.000000,0.000000,0.000000,0.000000,0.000000,0.000000,0.000000,0.000000
17,1,0.000000,0.000000,0.000000,0.000000,0.000000,0.000000,0.000000,0.000000,0.000000,-0.632338,0.632338,0.032409,5,946691142.293029,0.193136,0.361360,-9.445957,1.037934,1.038094,-0.000160,7.718437,7.718596,-0.000087,0.164495,10.246751,0.819740,-0.157553,-0.939621,0.037519,0.000000,0.000000,0.000000,0.000000,0.000000,0.000000,0.000000,0.000000,0.000000,0.000000
18,1,0.000000,0.000000,0.000000,0.000000,0.000000,0.000000,0.000000,0.000000,0.000000,-0.632076,0.632076,0.032409,5,946691142.293243,0.116495,0.284720,-9.522597,1.587267,1.587443,-0.000175,8.328806,8.328981,-0.000092,0.591754,0.008500,0.819400,-0.155323,-0.937898,0.037646,0.000000,0.000000,0.000000,0.000000,0.000000,0.000000,0.000000,0.000000,0.000000,0.000000
19,1,0.000000,0.000000,0.000000,0.000000,0.000000,0.000000,0.000000,0.000000,0.000000,-0.632076,0.632076,0.032409,5,946691142.293487,0.039855,0.284720,-9.522597,2.258675,2.258866,-0.000191,9.183325,9.183516,-0.000094,0.652791,0.008500,0.819400,-0.152878,-0.935964,0.037805,0.000000,0.000000,0.000000,0.000000,0.000000,0.000000,0.000000,0.000000,0.000000,0.000000
20,1,0.000000,0.000000,0.000000,0.000000,0.000000,0.000000,0.000000,0.000000,0.000000,-0.632076,0.632076,0.032409,5,946691142.294677,0.039855,0.284720,-9.599238,3.174230,3.174442,-0.000212,10.220954,10.221167,-0.000097,0.713828,0.008500,0.819400,-0.140516,-0.930810,0.038654,0.000000,0.000000,0.000000,0.000000,0.000000,0.000000,0.000000,0.000000,0.000000,0.000000
21,1,0.000000,0.000000,0.000000,0.000000,0.000000,0.000000,0.000000,0.000000,0.000000,-0.632076,0.632076,0.032409,5,946691142.294982,-0.036786,0.284720,-9.675879,3.967711,3.967946,-0.000234,11.502732,11.502967,-0.000097,0.408643,0.008500,0.819400,-0.137051,-0.928231,0.038779,0.000000,0.000000,0.000000,0.000000,0.000000,0.000000,0.000000,0.000000,0.000000,0.000000
22,1,0.000000,0.000000,0.000000,0.000000,0.000000,0.000000,0.000000,0.000000,0.000000,-0.632076,0.632076,0.032409,5,946691142.295227,-0.036786,0.284720,-9.752520,4.700155,4.700413,-0.000258,12.601398,12.601656,-0.000096,-0.018616,0.008500,0.819400,-0.134005,-0.925719,0.038774,0.000000,0.000000,0.000000,0.000000,0.000000,0.000000,0.000000,0.000000,0.000000,0.000000
23,1,0.000000,0.000000,0.000000,0.000000,0.000000,0.000000,0.000000,0.000000,0.000000,-0.632076,0.632076,0.032409,5,946691142.295959,-0.036786,0.284720,-9.752520,5.432600,5.432883,-0.000283,13.455916,13.456199,-0.000095,-0.690024,0.008500,0.819400,-0.124204,-0.920382,0.038269,0.000000,0.000000,0.000000,0.000000,0.000000,0.000000,0.000000,0.000000,0.000000,0.000000
24,1,0.000000,0.000000,0.000000,0.000000,0.000000,0.000000,0.000000,0.000000,0.000000,-0.632076,0.632076,0.032409,5,946691142.296203,-0.113427,0.284720,-9.829160,5.676748,5.677058,-0.000310,14.066286,14.066596,-0.000089,-1.361431,0.008500,0.819400,-0.121055,-0.917645,0.037937,0.000000,0.000000,0.000000,0.000000,0.000000,0.000000,0.000000,0.000000,0.000000,0.000000
25,1,0.000000,0.000000,0.000000,0.000000,0.000000,0.000000,0.000000,0.000000,0.000000,-0.632076,0.632076,0.032409,5,946691142.296508,-0.113427,0.361360,-9.905801,6.042970,6.043313,-0.000343,14.432509,14.432852,-0.000083,-1.971801,0.008500,0.819400,-0.116937,-0.914226,0.037336,0.000000,0.000000,0.000000,0.000000,0.000000,0.000000,0.000000,0.000000,0.000000,0.000000
26,1,0.000000,0.000000,0.000000,0.000000,0.000000,0.000000,0.000000,0.000000,0.000000,-0.631814,0.631814,0.032409,5,946691142.297119,-0.113427,0.361360,-9.905801,5.981933,5.982311,-0.000378,14.432509,14.432888,-0.000077,-2.276986,-0.008500,0.819060,-0.108405,-0.908995,0.035945,0.000000,0.000000,0.000000,0.000000,0.000000,0.000000,0.000000,0.000000,0.000000,0.000000
27,1,0.000000,0.000000,0.000000,0.000000,0.000000,0.000000,0.000000,0.000000,0.000000,-0.631814,0.631814,0.032409,5,946691142.297454,-0.036786,0.361360,-9.905801,5.676748,5.677163,-0.000415,14.249398,14.249814,-0.000076,-2.338023,-0.008500,0.819060,-0.103689,-0.905519,0.035161,0.000000,0.000000,0.000000,0.000000,0.000000,0.000000,0.000000,0.000000,0.000000,0.000000
28,1,0.000000,0.000000,0.000000,0.000000,0.000000,0.000000,0.000000,0.000000,0.000000,-0.631814,0.631814,0.032409,5,946691142.297760,-0.036786,0.438001,-9.905801,5.188452,5.188911,-0.000460,13.883175,13.883634,-0.000074,-1.666616,-0.008500,0.819060,-0.099501,-0.902126,0.034651,0.000000,0.000000,0.000000,0.000000,0.000000,0.000000,0.000000,0.000000,0.000000,0.000000
29,1,0.000000,0.000000,0.000000,0.000000,0.000000,0.000000,0.000000,0.000000,0.000000,-0.631814,0.631814,0.032409,5,946691142.298065,0.039855,0.438001,-9.905801,4.700155,4.700661,-0.000505,13.211768,13.212274,-0.000078,-0.995209,-0.008500,0.819060,-0.095300,-0.898888,0.034348,0.000000,0.000000,0.000000,0.000000,0.000000,0.000000,0.000000,0.000000,0.000000,0.000000
30,1,0.000000,0.000000,0.000000,0.000000,0.000000,0.000000,0.000000,0.000000,0.000000,-0.631814,0.631814,0.032409,5,946691142.298522,0.039855,0.438001,-9.905801,3.967711,3.968265,-0.000554,12.479324,12.479877,-0.000083,-0.140690,-0.008500,0.819060,-0.089428,-0.895270,0.034284,0.000000,0.000000,0.000000,0.000000,0.000000,0.000000,0.000000,0.000000,0.000000,0.000000
31,1,0.000000,0.000000,0.000000,0.000000,0.000000,0.000000,0.000000,0.000000,0.000000,-0.631814,0.631814,0.032409,5,946691142.298828,0.116495,0.438001,-9.905801,3.357341,3.357945,-0.000603,11.502732,11.503336,-0.000094,0.408643,-0.008500,0.819060,-0.085509,-0.892440,0.034409,0.000000,0.000000,0.000000,0.000000,0.000000,0.000000,0.000000,0.000000,0.000000,0.000000
32,1,0.000000,0.000000,0.000000,0.000000,0.000000,0.000000,0.000000,0.000000,0.000000,-0.631814,0.631814,0.032409,5,946691142.299102,0.193136,0.514642,-9.829160,2.685934,2.686595,-0.000662,10.465102,10.465764,-0.000112,0.713828,-0.008500,0.819060,-0.082006,-0.889656,0.034604,0.000000,0.000000,0.000000,0.000000,0.000000,0.000000,0.000000,0.000000,0.000000,0.000000
33,1,0.000000,0.000000,0.000000,0.000000,0.000000,0.000000,0.000000,0.000000,0.000000,-0.631814,0.631814,0.032409,5,946691142.299438,0.269776,0.514642,-9.829160,2.136601,2.137322,-0.000722,9.244362,9.245083,-0.000138,0.774865,-0.008500,0.819060,-0.078029,-0.886892,0.034865,0.000000,0.000000,0.000000,0.000000,0.000000,0.000000,0.000000,0.000000,0.000000,0.000000
34,1,0.000000,0.000000,0.000000,0.000000,0.000000,0.000000,0.000000,0.000000,0.000000,-0.631552,0.631552,0.032409,5,946691142.299713,0.346417,0.591282,-9.905801,1.648305,1.649095,-0.000790,8.084659,8.085449,-0.000171,0.225532,-0.008500,0.818720,-0.074711,-0.884172,0.034927,0.000000,0.000000,0.000000,0.000000,0.000000,0.000000,0.000000,0.000000,0.000000,0.000000
35,1,0.000000,0.000000,0.000000,0.000000,0.000000,0.000000,0.000000,0.000000,0.000000,-0.631552,0.631552,0.032409,5,946691142.300079,0.423058,0.591282,-9.905801,0.915860,0.916722,-0.000861,6.680807,6.681669,-0.000212,-0.445875,-0.008500,0.818720,-0.070939,-0.881570,0.034763,0.000000,0.000000,0.000000,0.000000,0.000000,0.000000,0.000000,0.000000,0.000000,0.000000
36,1,0.000000,0.000000,0.000000,0.000000,0.000000,0.000000,0.000000,0.000000,0.000000,-0.631552,0.631552,0.032409,5,946691142.300415,0.499698,0.667923,-9.905801,0.366527,0.367469,-0.000942,5.154882,5.155824,-0.000263,-1.300394,-0.008500,0.818720,-0.067648,-0.878948,0.034326,0.000000,0.000000,0.000000,0.000000,0.000000,0.000000,0.000000,0.000000,0.000000,0.000000
37,1,0.000000,0.000000,0.000000,0.000000,0.000000,0.000000,0.000000,0.000000,0.000000,-0.631552,0.631552,0.032409,5,946691142.300872,0.499698,0.667923,-9.905801,-0.426954,-0.425928,-0.001026,3.812067,3.813093,-0.000315,-1.666616,-0.008500,0.818720,-0.064347,-0.876644,0.033565,0.000000,0.000000,0.000000,0.000000,0.000000,0.000000,0.000000,0.000000,0.000000,0.000000
38,1,0.000000,0.000000,0.000000,0.000000,0.000000,0.000000,0.000000,0.000000,0.000000,-0.631552,0.631552,0.032409,5,946691142.301177,0.499698,0.744563,-9.905801,-1.403546,-1.402426,-0.001121,2.652364,2.653484,-0.000369,-1.971801,-0.008500,0.818720,-0.061980,-0.874340,0.032963,0.000000,0.000000,0.000000,0.000000,0.000000,0.000000,0.000000,0.000000,0.000000,0.000000
39,1,0.000000,0.000000,0.000000,0.000000,0.000000,0.000000,0.000000,0.000000,0.000000,-0.631552,0.631552,0.032409,5,946691142.301452,0.499698,0.744563,-9.905801,-2.380139,-2.378921,-0.001217,1.553697,1.554915,-0.000424,-1.666616,-0.008500,0.818720,-0.059996,-0.872263,0.032505,0.000000,0.000000,0.000000,0.000000,0.000000,0.000000,0.000000,0.000000,0.000000,0.000000
40,1,0.000000,0.000000,0.000000,0.000000,0.000000,0.000000,0.000000,0.000000,0.000000,-0.631552,0.631552,0.032409,5,946691142.301757,0.499698,0.744563,-9.829160,-3.356731,-3.355414,-0.001317,0.455031,0.456348,-0.000481,-0.995209,-0.008500,0.818720,-0.058288,-0.870537,0.032202,0.000000,0.000000,0.000000,0.000000,0.000000,0.000000,0.000000,0.000000,0.000000,0.000000
41,1,0.000000,0.000000,0.000000,0.000000,0.000000,0.000000,0.000000,0.000000,0.000000,-0.631552,0.631552,0.032409,5,946691142.302062,0.423058,0.744563,-9.829160,-4.394360,-4.392941,-0.001419,-0.155339,-0.153920,-0.000531,-0.201727,-0.008500,0.818720,-0.057002,-0.869128,0.032140,0.000000,0.000000,0.000000,0.000000,0.000000,0.000000,0.000000,0.000000,0.000000,0.000000
42,1,0.000000,0.000000,0.000000,0.000000,0.000000,0.000000,0.000000,0.000000,0.000000,-0.630502,0.630502,0.032409,5,946691142.302337,0.346417,0.744563,-9.829160,-5.187842,-5.186318,-0.001524,-0.338450,-0.336926,-0.000572,0.713828,-0.021249,0.817360,-0.055999,-0.867805,0.032336,0.000000,0.000000,0.000000,0.000000,0.000000,0.000000,0.000000,0.000000,0.000000,0.000000
43,1,0.000000,0.000000,0.000000,0.000000,0.000000,0.000000,0.000000,0.000000,0.000000,-0.630502,0.630502,0.032409,5,946691142.302612,0.269776,0.744563,-9.829160,-6.286508,-6.284877,-0.001631,-0.277413,-0.275783,-0.000606,1.629383,-0.021249,0.817360,-0.055214,-0.866783,0.032784,0.000000,0.000000,0.000000,0.000000,0.000000,0.000000,0.000000,0.000000,0.000000,0.000000
44,1,0.000000,0.000000,0.000000,0.000000,0.000000,0.000000,0.000000,0.000000,0.000000,-0.630502,0.630502,0.032409,5,946691142.302978,0.269776,0.744563,-9.829160,-7.324137,-7.322397,-0.001740,0.210883,0.212623,-0.000640,1.873531,-0.021249,0.817360,-0.054276,-0.866714,0.033470,0.000000,0.000000,0.000000,0.000000,0.000000,0.000000,0.000000,0.000000,0.000000,0.000000
45,1,0.000000,0.000000,0.000000,0.000000,0.000000,0.000000,0.000000,0.000000,0.000000,-0.630502,0.630502,0.032409,5,946691142.303283,0.193136,0.744563,-9.905801,-7.629322,-7.627470,-0.001852,1.187475,1.189327,-0.000665,1.995605,-0.021249,0.817360,-0.053294,-0.866306,0.034079,0.000000,0.000000,0.000000,0.000000,0.000000,0.000000,0.000000,0.000000,0.000000,0.000000
46,1,0.000000,0.000000,0.000000,0.000000,0.000000,0.000000,0.000000,0.000000,0.000000,-0.630502,0.630502,0.032409,5,946691142.303558,0.193136,0.667923,-9.905801,-7.812434,-7.810478,-0.001956,2.469253,2.471209,-0.000691,1.751457,-0.021249,0.817360,-0.051996,-0.865953,0.034560,0.000000,0.000000,0.000000,0.000000,0.000000,0.000000,0.000000,0.000000,0.000000,0.000000
47,1,0.000000,0.000000,0.000000,0.000000,0.000000,0.000000,0.000000,0.000000,0.000000,-0.630502,0.630502,0.032409,5,946691142.303833,0.193136,0.667923,-9.905801,-7.934507,-7.932445,-0.002062,3.689993,3.692055,-0.000717,1.080050,-0.021249,0.817360,-0.050363,-0.865634,0.034857,0.000000,0.000000,0.000000,0.000000,0.000000,0.000000,0.000000,0.000000,0.000000,0.000000
48,1,0.000000,0.000000,0.000000,0.000000,0.000000,0.000000,0.000000,0.000000,0.000000,-0.630502,0.630502,0.032409,5,946691142.304138,0.193136,0.591282,-9.982441,-8.056581,-8.054421,-0.002160,5.093845,5.096004,-0.000744,0.469680,-0.021249,0.817360,-0.048197,-0.865836,0.035001,0.000000,0.000000,0.000000,0.000000,0.000000,0.000000,0.000000,0.000000,0.000000,0.000000
49,1,0.000000,0.000000,0.000000,0.000000,0.000000,0.000000,0.000000,0.000000,0.000000,-0.630502,0.630502,0.032409,5,946691142.305603,0.193136,0.591282,-9.982441,-7.873470,-7.871202,-0.002268,6.436659,6.438927,-0.000773,-0.018616,-0.021249,0.817360,-0.038156,-0.875100,0.034973,0.000000,0.000000,0.000000,0.000000,0.000000,0.000000,0.000000,0.000000,0.000000,0.000000
50,1,0.000000,0.000000,0.000000,0.000000,0.000000,0.000000,0.000000,0.000000,0.000000,-0.630240,0.630240,0.032409,5,946691142.307006,0.269776,0.591282,-9.982441,-7.568285,-7.565900,-0.002386,7.840510,7.842895,-0.000816,-0.506912,-0.021249,0.817020,-0.026315,-0.883436,0.034262,0.000000,0.000000,0.000000,0.000000,0.000000,0.000000,0.000000,0.000000,0.000000,0.000000
51,1,0.000000,0.000000,0.000000,0.000000,0.000000,0.000000,0.000000,0.000000,0.000000,-0.630240,0.630240,0.032409,5,946691142.307220,0.269776,0.514642,-9.982441,-7.446212,-7.443719,-0.002493,9.122288,9.124781,-0.000860,-0.567950,-0.021249,0.817020,-0.023524,-0.882983,0.034141,0.000000,0.000000,0.000000,0.000000,0.000000,0.000000,0.000000,0.000000,0.000000,0.000000
52,1,0.000000,0.000000,0.000000,0.000000,0.000000,0.000000,0.000000,0.000000,0.000000,-0.630240,0.630240,0.032409,5,946691142.307434,0.346417,0.514642,-9.905801,-7.202063,-7.199462,-0.002602,10.037843,10.040445,-0.000918,-0.690024,-0.021249,0.817020,-0.020297,-0.882466,0.033993,0.000000,0.000000,0.000000,0.000000,0.000000,0.000000,0.000000,0.000000,0.000000,0.000000
53,1,0.000000,0.000000,0.000000,0.000000,0.000000,0.000000,0.000000,0.000000,0.000000,-0.630240,0.630240,0.032409,5,946691142.307617,0.423058,0.438001,-9.905801,-6.835841,-6.833142,-0.002699,10.648213,10.650913,-0.000988,-0.323801,-0.021249,0.817020,-0.017035,-0.881895,0.033934,0.000000,0.000000,0.000000,0.000000,0.000000,0.000000,0.000000,0.000000,0.000000,0.000000
54,1,0.000000,0.000000,0.000000,0.000000,0.000000,0.000000,0.000000,0.000000,0.000000,-0.630240,0.630240,0.032409,5,946691142.310882,0.423058,0.438001,-9.829160,-6.225471,-6.222655,-0.002816,11.197546,11.200363,-0.001071,0.164495,-0.021249,0.817020,0.020844,-0.900355,0.034471,0.000000,0.000000,0.000000,0.000000,0.000000,0.000000,0.000000,0.000000,0.000000,0.000000
55,1,0.000000,0.000000,0.000000,0.000000,0.000000,0.000000,0.000000,0.000000,0.000000,-0.630240,0.630240,0.032409,5,946691142.311218,0.499698,0.361360,-9.752520,-5.859249,-5.856329,-0.002920,11.136509,11.139430,-0.001171,0.469680,-0.021249,0.817020,0.026152,-0.900696,0.034629,0.000000,0.000000,0.000000,0.000000,0.000000,0.000000,0.000000,0.000000,0.000000,0.000000
56,1,0.000000,0.000000,0.000000,0.000000,0.000000,0.000000,0.000000,0.000000,0.000000,-0.630240,0.630240,0.032409,5,946691142.311401,0.499698,0.361360,-9.599238,-5.248879,-5.245852,-0.003027,11.014436,11.017462,-0.001273,0.713828,-0.021249,0.817020,0.029756,-0.900011,0.034759,0.000000,0.000000,0.000000,0.000000,0.000000,0.000000,0.000000,0.000000,0.000000,0.000000
57,1,0.000000,0.000000,0.000000,0.000000,0.000000,0.000000,0.000000,0.000000,0.000000,-0.630240,0.630240,0.032409,5,946691142.311614,0.499698,0.284720,-9.522597,-4.516434,-4.513317,-0.003118,10.770287,10.773405,-0.001377,0.957976,-0.021249,0.817020,0.033650,-0.899566,0.034963,0.000000,0.000000,0.000000,0.000000,0.000000,0.000000,0.000000,0.000000,0.000000,0.000000
58,1,0.000000,0.000000,0.000000,0.000000,0.000000,0.000000,0.000000,0.000000,0.000000,-0.630502,0.630502,0.032409,5,946691142.311828,0.499698,0.284720,-9.445957,-3.356731,-3.353520,-0.003211,10.220954,10.224165,-0.001483,0.896939,0.000000,0.817360,0.037447,-0.898870,0.035155,0.000000,0.000000,0.000000,0.000000,0.000000,0.000000,0.000000,0.000000,0.000000,0.000000
59,1,0.000000,0.000000,0.000000,0.000000,0.000000,0.000000,0.000000,0.000000,0.000000,-0.630502,0.630502,0.032409,5,946691142.312011,0.499698,0.208079,-9.445957,-2.135991,-2.132702,-0.003288,9.366436,9.369724,-0.001590,0.774865,0.000000,0.817360,0.040770,-0.898097,0.035297,0.000000,0.000000,0.000000,0.000000,0.000000,0.000000,0.000000,0.000000,0.000000,0.000000
60,1,0.000000,0.000000,0.000000,0.000000,0.000000,0.000000,0.000000,0.000000,0.000000,-0.630502,0.630502,0.032409,5,946691142.312194,0.499698,0.208079,-9.369316,-1.037324,-1.033958,-0.003366,8.633992,8.637358,-0.001698,0.286569,0.000000,0.817360,0.043970,-0.897118,0.035349,0.000000,0.000000,0.000000,0.000000,0.000000,0.000000,0.000000,0.000000,0.000000,0.000000
61,1,0.000000,0.000000,0.000000,0.000000,0.000000,0.000000,0.000000,0.000000,0.000000,-0.630502,0.630502,0.032409,5,946691142.312377,0.423058,0.131438,-9.369316,0.061342,0.064770,-0.003428,7.474288,7.477716,-0.001790,-0.079653,0.000000,0.817360,0.046705,-0.896191,0.035335,0.000000,0.000000,0.000000,0.000000,0.000000,0.000000,0.000000,0.000000,0.000000,0.000000
62,1,0.000000,0.000000,0.000000,0.000000,0.000000,0.000000,0.000000,0.000000,0.000000,-0.630502,0.630502,0.032409,5,946691142.312622,0.423058,0.131438,-9.292676,1.343119,1.346610,-0.003490,6.375622,6.379112,-0.001884,-0.506912,0.000000,0.817360,0.049644,-0.894943,0.035211,0.000000,0.000000,0.000000,0.000000,0.000000,0.000000,0.000000,0.000000,0.000000,0.000000
63,1,0.000000,0.000000,0.000000,0.000000,0.000000,0.000000,0.000000,0.000000,0.000000,-0.630502,0.630502,0.032409,5,946691142.312805,0.346417,0.131438,-9.369316,2.563860,2.567413,-0.003553,5.399030,5.402583,-0.001960,-0.751061,0.000000,0.817360,0.051745,-0.893559,0.035073,0.000000,0.000000,0.000000,0.000000,0.000000,0.000000,0.000000,0.000000,0.000000,0.000000
64,1,0.000000,0.000000,0.000000,0.000000,0.000000,0.000000,0.000000,0.000000,0.000000,-0.630502,0.630502,0.032409,5,946691142.312988,0.346417,0.054798,-9.369316,3.540452,3.544051,-0.003599,4.605548,4.609147,-0.002037,-1.056246,0.000000,0.817360,0.053700,-0.892250,0.034880,0.000000,0.000000,0.000000,0.000000,0.000000,0.000000,0.000000,0.000000,0.000000,0.000000
65,1,0.000000,0.000000,0.000000,0.000000,0.000000,0.000000,0.000000,0.000000,0.000000,-0.630502,0.630502,0.032409,5,946691142.313171,0.269776,0.131438,-9.445957,4.517045,4.520706,-0.003662,3.812067,3.815729,-0.002096,-1.239357,0.000000,0.817360,0.055249,-0.890514,0.034653,0.000000,0.000000,0.000000,0.000000,0.000000,0.000000,0.000000,0.000000,0.000000,0.000000
66,1,0.000000,0.000000,0.000000,0.000000,0.000000,0.000000,0.000000,0.000000,0.000000,-0.630502,0.630502,0.032409,5,946691142.313476,0.269776,0.054798,-9.522597,5.615711,5.619419,-0.003708,3.689993,3.693701,-0.002156,-1.056246,0.004250,0.817360,0.057218,-0.888144,0.034331,0.000000,0.000000,0.000000,0.000000,0.000000,0.000000,0.000000,0.000000,0.000000,0.000000
67,1,0.000000,0.000000,0.000000,0.000000,0.000000,0.000000,0.000000,0.000000,0.000000,-0.630502,0.630502,0.032409,5,946691142.313690,0.193136,0.131438,-9.599238,6.653340,6.657112,-0.003772,3.873104,3.876876,-0.002198,-1.117283,0.004250,0.817360,0.058636,-0.885820,0.034092,0.000000,0.000000,0.000000,0.000000,0.000000,0.000000,0.000000,0.000000,0.000000,0.000000
68,1,0.000000,0.000000,0.000000,0.000000,0.000000,0.000000,0.000000,0.000000,0.000000,-0.630502,0.630502,0.032409,5,946691142.313964,0.116495,0.131438,-9.752520,7.141636,7.145473,-0.003836,4.239326,4.243163,-0.002222,-1.056246,0.004250,0.817360,0.060135,-0.882970,0.033802,0.000000,0.000000,0.000000,0.000000,0.000000,0.000000,0.000000,0.000000,0.000000,0.000000
69,1,0.000000,0.000000,0.000000,0.000000,0.000000,0.000000,0.000000,0.000000,0.000000,-0.630502,0.630502,0.032409,5,946691142.314147,0.116495,0.208079,-9.829160,7.385784,7.389702,-0.003918,4.544511,4.548429,-0.002246,-0.995209,0.004250,0.817360,0.061300,-0.880490,0.033620,0.000000,0.000000,0.000000,0.000000,0.000000,0.000000,0.000000,0.000000,0.000000,0.000000
70,1,0.000000,0.000000,0.000000,0.000000,0.000000,0.000000,0.000000,0.000000,0.000000,-0.630502,0.630502,0.032409,5,946691142.314422,0.039855,0.208079,-9.905801,7.690970,7.694970,-0.004000,5.337993,5.341993,-0.002252,-0.934172,0.004250,0.817360,0.062859,-0.877253,0.033363,0.000000,0.000000,0.000000,0.000000,0.000000,0.000000,0.000000,0.000000,0.000000,0.000000
71,1,0.000000,0.000000,0.000000,0.000000,0.000000,0.000000,0.000000,0.000000,0.000000,-0.630502,0.630502,0.032409,5,946691142.315429,0.039855,0.284720,-10.059082,7.752006,7.756109,-0.004103,5.765252,5.769354,-0.002259,-0.934172,0.004250,0.817360,0.068752,-0.868098,0.032423,0.000000,0.000000,0.000000,0.000000,0.000000,0.000000,0.000000,0.000000,0.000000,0.000000
72,1,0.000000,0.000000,0.000000,0.000000,0.000000,0.000000,0.000000,0.000000,0.000000,-0.630502,0.630502,0.032409,5,946691142.315673,0.039855,0.361360,-10.135722,7.568896,7.573119,-0.004223,6.192511,6.196734,-0.002265,-0.873135,0.004250,0.817360,0.070347,-0.864680,0.032210,0.000000,0.000000,0.000000,0.000000,0.000000,0.000000,0.000000,0.000000,0.000000,0.000000
73,1,0.000000,0.000000,0.000000,0.000000,0.000000,0.000000,0.000000,0.000000,0.000000,-0.630502,0.630502,0.032409,5,946691142.315856,0.039855,0.361360,-10.212363,7.263710,7.268054,-0.004344,6.619770,6.624114,-0.002272,-0.690024,0.004250,0.817360,0.071641,-0.861790,0.032083,0.000000,0.000000,0.000000,0.000000,0.000000,0.000000,0.000000,0.000000,0.000000,0.000000
74,1,0.000000,0.000000,0.000000,0.000000,0.000000,0.000000,0.000000,0.000000,0.000000,-0.629978,0.629978,0.032409,5,946691142.316101,0.116495,0.438001,-10.212363,6.653340,6.657824,-0.004484,6.924955,6.929439,-0.002296,-0.628987,-0.008500,0.816680,0.073651,-0.858368,0.031929,0.000000,0.000000,0.000000,0.000000,0.000000,0.000000,0.000000,0.000000,0.000000,0.000000
75,1,0.000000,0.000000,0.000000,0.000000,0.000000,0.000000,0.000000,0.000000,0.000000,-0.629978,0.629978,0.032409,5,946691142.316314,0.116495,0.514642,-10.212363,6.042970,6.047613,-0.004643,6.985992,6.990635,-0.002321,-0.445875,-0.008500,0.816680,0.075453,-0.855059,0.031834,0.000000,0.000000,0.000000,0.000000,0.000000,0.000000,0.000000,0.000000,0.000000,0.000000
76,1,0.000000,0.000000,0.000000,0.000000,0.000000,0.000000,0.000000,0.000000,0.000000,-0.131566,0.131566,0.031037,6,946691142.320465,0.193136,0.514642,-10.212363,5.371563,5.376389,-0.004827,6.863918,6.868745,-0.002369,-0.262764,-0.008500,0.816680,0.104489,-0.830712,0.030744,0.000000,0.000000,0.000000,0.000000,0.000000,0.000000,0.000000,0.000000,0.000000,0.000000
77,1,0.000000,0.000000,0.000000,0.000000,0.000000,0.000000,0.000000,0.000000,0.000000,-0.131566,0.131566,0.031037,6,946691142.320709,0.269776,0.514642,-10.212363,4.578082,4.583094,-0.005012,6.192511,6.197523,-0.002439,-0.262764,-0.008500,0.816680,0.106769,-0.827565,0.030680,0.000000,0.000000,0.000000,0.000000,0.000000,0.000000,0.000000,0.000000,0.000000,0.000000
78,1,0.000000,0.000000,0.000000,0.000000,0.000000,0.000000,0.000000,0.000000,0.000000,-0.131566,0.131566,0.031037,6,946691142.320922,0.346417,0.591282,-10.135722,3.906674,3.911895,-0.005221,5.643178,5.648399,-0.002532,-0.201727,-0.008500,0.816680,0.108982,-0.824456,0.030637,0.000000,0.000000,0.000000,0.000000,0.000000,0.000000,0.000000,0.000000,0.000000,0.000000
79,1,0.000000,0.000000,0.000000,0.000000,0.000000,0.000000,0.000000,0.000000,0.000000,-0.131566,0.131566,0.031037,6,946691142.325012,0.499698,0.667923,-10.059082,2.930082,2.935566,-0.005484,4.544511,4.549995,-0.002687,-0.018616,-0.008500,0.816680,0.129080,-0.809904,0.030560,0.000000,0.000000,0.000000,0.000000,0.000000,0.000000,0.000000,0.000000,0.000000,0.000000
80,1,0.000000,0.000000,0.000000,0.000000,0.000000,0.000000,0.000000,0.000000,0.000000,-0.131566,0.131566,0.031037,6,946691142.330017,0.576339,0.667923,-9.982441,2.014527,2.020315,-0.005788,3.323771,3.329559,-0.002895,-0.140690,-0.008500,0.816680,0.147497,-0.797204,0.029856,0.000000,0.000000,0.000000,0.000000,0.000000,0.000000,0.000000,0.000000,0.000000,0.000000
81,1,0.000000,0.000000,0.000000,0.000000,0.000000,0.000000,0.000000,0.000000,0.000000,-0.131566,0.131566,0.031037,6,946691142.335021,0.652980,0.667923,-9.905801,0.854823,0.860957,-0.006134,1.614734,1.620868,-0.003163,-0.201727,-0.008500,0.816680,0.157643,-0.790259,0.028847,0.000000,0.000000,0.000000,0.000000,0.000000,0.000000,0.000000,0.000000,0.000000,0.000000
82,1,0.000000,0.000000,0.000000,0.000000,0.000000,0.000000,0.000000,0.000000,0.000000,-0.131511,0.131511,0.031037,6,946691142.340118,0.652980,0.667923,-9.829160,-0.365917,-0.359394,-0.006523,0.577105,0.583628,-0.003466,-0.323801,-0.012749,0.816340,0.162694,-0.789401,0.027196,0.000000,0.000000,0.000000,0.000000,0.000000,0.000000,0.000000,0.000000,0.000000,0.000000
83,1,0.000000,0.000000,0.000000,0.000000,0.000000,0.000000,0.000000,0.000000,0.000000,-0.131511,0.131511,0.031037,6,946691142.345153,0.652980,0.667923,-9.752520,-1.647694,-1.640736,-0.006958,-0.094302,-0.087344,-0.003805,-0.506912,-0.012749,0.816340,0.164375,-0.794915,0.024644,0.000000,0.000000,0.000000,0.000000,0.000000,0.000000,0.000000,0.000000,0.000000,0.000000
84,1,0.000000,0.000000,0.000000,0.000000,0.000000,0.000000,0.000000,0.000000,0.000000,-0.153033,0.000000,0.026672,7,946691142.350067,0.652980,0.667923,-9.675879,-2.685324,-2.677885,-0.007438,-0.765709,-0.758271,-0.004178,-0.506912,-0.012749,0.816340,0.162817,-0.805267,0.022153,0.000000,0.000000,0.000000,0.000000,0.000000,0.000000,0.000000,0.000000,0.000000,0.000000
85,1,0.000000,0.000000,0.000000,0.000000,0.000000,0.000000,0.000000,0.000000,0.000000,-0.153033,0.000000,0.026672,7,946691142.355010,0.652980,0.744563,-9.675879,-3.600879,-3.592867,-0.008013,-0.704672,-0.696660,-0.004585,-0.384838,-0.012749,0.816340,0.161569,-0.819904,0.020251,0.000000,0.000000,0.000000,0.000000,0.000000,0.000000,0.000000,0.000000,0.000000,0.000000
86,1,0.000000,0.000000,0.000000,0.000000,0.000000,0.000000,0.000000,0.000000,0.000000,-0.153033,0.000000,0.026672,7,946691142.360015,0.576339,0.667923,-9.599238,-4.577472,-4.568884,-0.008587,0.088809,0.097396,-0.004975,-0.323801,-0.012749,0.816340,0.164022,-0.839849,0.018630,0.000000,0.000000,0.000000,0.000000,0.000000,0.000000,0.000000,0.000000,0.000000,0.000000
87,1,0.000000,0.000000,0.000000,0.000000,0.000000,0.000000,0.000000,0.000000,0.000000,-0.153033,0.000000,0.026672,7,946691142.365020,0.499698,0.667923,-9.522597,-5.859249,-5.850035,-0.009214,1.065401,1.074615,-0.005339,-0.140690,-0.012749,0.816340,0.171121,-0.866132,0.017926,0.000000,0.000000,0.000000,0.000000,0.000000,0.000000,0.000000,0.000000,0.000000,0.000000
88,1,0.000000,0.000000,0.000000,0.000000,0.000000,0.000000,0.000000,0.000000,0.000000,-0.153033,0.000000,0.026672,7,946691142.370147,0.423058,0.667923,-9.522597,-6.896878,-6.886986,-0.009892,2.041994,2.051886,-0.005665,0.225532,-0.012749,0.816340,0.183089,-0.898384,0.019082,0.000000,0.000000,0.000000,0.000000,0.000000,0.000000,0.000000,0.000000,0.000000,0.000000
89,1,0.000000,0.000000,0.000000,0.000000,0.000000,0.000000,0.000000,0.000000,0.000000,-0.153033,0.000000,0.026672,7,946691142.375030,0.346417,0.667923,-9.522597,-7.934507,-7.923886,-0.010621,3.262734,3.273355,-0.005943,0.469680,-0.012749,0.816340,0.200238,-0.933958,0.021376,0.000000,0.000000,0.000000,0.000000,0.000000,0.000000,0.000000,0.000000,0.000000,0.000000
90,1,0.000000,0.000000,0.000000,0.000000,0.000000,0.000000,0.000000,0.000000,0.000000,0.000000,-0.128288,0.031830,8,946691142.380157,0.269776,0.667923,-9.522597,-8.850062,-8.838657,-0.011405,4.666586,4.677991,-0.006162,0.652791,0.000000,0.816680,0.225088,-0.976086,0.024723,0.000000,0.000000,0.000000,0.000000,0.000000,0.000000,0.000000,0.000000,0.000000,0.000000
91,1,0.000000,0.000000,0.000000,0.000000,0.000000,0.000000,0.000000,0.000000,0.000000,0.000000,-0.128288,0.031830,8,946691142.385162,0.269776,0.667923,-9.522597,-9.582506,-9.570261,-0.012245,5.582141,5.594386,-0.006391,0.591754,0.000000,0.816680,0.253945,-1.020726,0.027684,0.000000,0.000000,0.000000,0.000000,0.000000,0.000000,0.000000,0.000000,0.000000,0.000000
92,1,0.000000,0.000000,0.000000,0.000000,0.000000,0.000000,0.000000,0.000000,0.000000,0.000000,-0.128288,0.031830,8,946691142.390075,0.269776,0.667923,-9.522597,-10.192877,-10.179735,-0.013142,6.619770,6.632912,-0.006627,0.835902,0.000000,0.816680,0.287376,-1.067408,0.031791,0.000000,0.000000,0.000000,0.000000,0.000000,0.000000,0.000000,0.000000,0.000000,0.000000
93,1,0.000000,0.000000,0.000000,0.000000,0.000000,0.000000,0.000000,0.000000,0.000000,0.000000,-0.128288,0.031830,8,946691142.395019,0.269776,0.667923,-9.522597,-10.681173,-10.667075,-0.014097,7.413251,7.427348,-0.006868,0.713828,0.000000,0.816680,0.324923,-1.116741,0.035320,0.000000,0.000000,0.000000,0.000000,0.000000,0.000000,0.000000,0.000000,0.000000,0.000000
94,1,0.000000,0.000000,0.000000,0.000000,0.000000,0.000000,0.000000,0.000000,0.000000,0.000000,-0.128288,0.031830,8,946691142.400024,0.269776,0.591282,-9.599238,-11.169469,-11.154450,-0.015019,8.267770,8.282789,-0.007112,0.591754,0.000000,0.816680,0.367175,-1.169411,0.038282,0.000000,0.000000,0.000000,0.000000,0.000000,0.000000,0.000000,0.000000,0.000000,0.000000
95,1,0.000000,0.000000,0.000000,0.000000,0.000000,0.000000,0.000000,0.000000,0.000000,0.000000,-0.128288,0.031830,8,946691142.405029,0.346417,0.591282,-9.599238,-11.108432,-11.092434,-0.015998,8.878140,8.894138,-0.007454,0.652791,0.000000,0.816680,0.412775,-1.221694,0.041549,0.000000,0.000000,0.000000,0.000000,0.000000,0.000000,0.000000,0.000000,0.000000,0.000000
96,1,0.000000,0.000000,0.000000,0.000000,0.000000,0.000000,0.000000,0.000000,0.000000,0.000000,-0.128288,0.031830,8,946691142.410034,0.423058,0.591282,-9.675879,-11.108432,-11.091401,-0.017031,9.244362,9.261393,-0.007896,0.469680,0.000000,0.816680,0.460491,-1.273912,0.043900,0.000000,0.000000,0.000000,0.000000,0.000000,0.000000,0.000000,0.000000,0.000000,0.000000
97,1,0.000000,0.000000,0.000000,0.000000,0.000000,0.000000,0.000000,0.000000,0.000000,-0.126829,-0.253659,0.032196,9,946691142.415039,0.499698,0.514642,-9.752520,-10.742210,-10.724193,-0.018017,9.122288,9.140305,-0.008446,0.286569,0.000000,0.816680,0.507886,-1.324549,0.045334,0.000000,0.000000,0.000000,0.000000,0.000000,0.000000,0.000000,0.000000,0.000000,0.000000
98,1,0.000000,0.000000,0.000000,0.000000,0.000000,0.000000,0.000000,0.000000,0.000000,-0.126935,-0.253870,0.032196,9,946691142.420166,0.576339,0.438001,-9.829160,-10.192877,-10.173927,-0.018949,8.756065,8.775015,-0.009112,0.164495,0.012749,0.817360,0.554810,-1.373930,0.046178,0.000000,0.000000,0.000000,0.000000,0.000000,0.000000,0.000000,0.000000,0.000000,0.000000
99,1,0.000000,0.000000,0.000000,0.000000,0.000000,0.000000,0.000000,0.000000,0.000000,-0.126935,-0.253870,0.032196,9,946691142.425201,0.652980,0.438001,-9.829160,-9.765618,-9.745683,-0.019935,8.084659,8.104593,-0.009906,0.164495,0.012749,0.817360,0.597865,-1.420151,0.047006,0.000000,0.000000,0.000000,0.000000,0.000000,0.000000,0.000000,0.000000,0.000000,0.000000
100,1,0.000000,0.000000,0.000000,0.000000,0.000000,0.000000,0.000000,0.000000,0.000000,-0.126935,-0.253870,0.032196,9,946691142.430084,0.729620,0.361360,-9.905801,-9.277321,-9.256469,-0.020853,6.924955,6.945808,-0.010831,0.042421,0.012749,0.817360,0.634331,-1.462769,0.047213,0.000000,0.000000,0.000000,0.000000,0.000000,0.000000,0.000000,0.000000,0.000000,0.000000
101,1,0.000000,0.000000,0.000000,0.000000,0.000000,0.000000,0.000000,0.000000,0.000000,-0.126935,-0.253870,0.032196,9,946691142.435089,0.729620,0.284720,-9.905801,-8.666951,-8.645251,-0.021700,5.704215,5.725915,-0.011785,0.042421,0.012749,0.817360,0.665549,-1.503721,0.047425,0.000000,0.000000,0.000000,0.000000,0.000000,0.000000,0.000000,0.000000,0.000000,0.000000
102,1,0.000000,0.000000,0.000000,0.000000,0.000000,0.000000,0.000000,0.000000,0.000000,-0.126935,-0.253870,0.032196,9,946691142.440063,0.806261,0.284720,-9.905801,-7.995544,-7.972952,-0.022592,3.934141,3.956733,-0.012895,-0.018616,0.012749,0.817360,0.688136,-1.541004,0.047333,0.000000,0.000000,0.000000,0.000000,0.000000,0.000000,0.000000,0.000000,0.000000,0.000000
103,1,0.000000,0.000000,0.000000,0.000000,0.000000,0.000000,0.000000,0.000000,0.000000,-0.257282,-0.257282,0.031769,10,946691142.445037,0.729620,0.284720,-9.905801,-7.141026,-7.117498,-0.023528,1.614734,1.638263,-0.013916,0.225532,0.012749,0.817360,0.698887,-1.573977,0.048455,0.000000,0.000000,0.000000,0.000000,0.000000,0.000000,0.000000,0.000000,0.000000,0.000000
104,1,0.000000,0.000000,0.000000,0.000000,0.000000,0.000000,0.000000,0.000000,0.000000,-0.257282,-0.257282,0.031769,10,946691142.450073,0.729620,0.208079,-9.982441,-6.164434,-6.140062,-0.024372,-0.399487,-0.375115,-0.014966,0.042421,0.012749,0.817360,0.699610,-1.602762,0.048668,0.000000,0.000000,0.000000,0.000000,0.000000,0.000000,0.000000,0.000000,0.000000,0.000000
105,1,0.000000,0.000000,0.000000,0.000000,0.000000,0.000000,0.000000,0.000000,0.000000,-0.257282,-0.257282,0.031769,10,946691142.455047,0.652980,0.208079,-9.905801,-5.309916,-5.284658,-0.025257,-2.596820,-2.571563,-0.015930,0.164495,0.012749,0.817360,0.689157,-1.626858,0.049486,0.000000,0.000000,0.000000,0.000000,0.000000,0.000000,0.000000,0.000000,0.000000,0.000000
106,1,0.000000,0.000000,0.000000,0.000000,0.000000,0.000000,0.000000,0.000000,0.000000,-0.256961,-0.256961,0.031769,10,946691142.460174,0.652980,0.131438,-9.905801,-4.211249,-4.185212,-0.026037,-4.733115,-4.707078,-0.016936,0.164495,-0.004250,0.816340,0.667409,-1.646430,0.050330,0.000000,0.000000,0.000000,0.000000,0.000000,0.000000,0.000000,0.000000,0.000000,0.000000
107,1,0.000000,0.000000,0.000000,0.000000,0.000000,0.000000,0.000000,0.000000,0.000000,-0.256961,-0.256961,0.031769,10,946691142.465209,0.576339,0.054798,-9.905801,-3.173620,-3.146919,-0.026701,-6.991485,-6.964785,-0.017841,0.286569,-0.004250,0.816340,0.634435,-1.660706,0.051773,0.000000,0.000000,0.000000,0.000000,0.000000,0.000000,0.000000,0.000000,0.000000,0.000000
108,1,0.000000,0.000000,0.000000,0.000000,0.000000,0.000000,0.000000,0.000000,0.000000,-0.256961,-0.256961,0.031769,10,946691142.470092,0.499698,0.054798,-9.905801,-2.258065,-2.230675,-0.027389,-9.066744,-9.039355,-0.018636,0.164495,-0.004250,0.816340,0.592096,-1.670003,0.052576,0.000000,0.000000,0.000000,0.000000,0.000000,0.000000,0.000000,0.000000,0.000000,0.000000
109,1,0.000000,0.000000,0.000000,0.000000,0.000000,0.000000,0.000000,0.000000,0.000000,-0.256961,-0.256961,0.031769,10,946691142.475067,0.346417,0.054798,-9.905801,-1.342509,-1.314407,-0.028102,-10.592669,-10.564566,-0.019160,0.164495,-0.004250,0.816340,0.540682,-1.674923,0.053394,0.000000,0.000000,0.000000,0.000000,0.000000,0.000000,0.000000,0.000000,0.000000,0.000000
110,1,0.000000,0.000000,0.000000,0.000000,0.000000,0.000000,0.000000,0.000000,0.000000,0.000000,-0.244289,0.033417,11,946691142.480072,0.269776,0.054798,-9.982441,-0.243843,-0.215006,-0.028838,-11.935483,-11.906646,-0.019554,0.286569,-0.004250,0.816340,0.481920,-1.674362,0.054829,0.000000,0.000000,0.000000,0.000000,0.000000,0.000000,0.000000,0.000000,0.000000,0.000000
111,1,0.000000,0.000000,0.000000,0.000000,0.000000,0.000000,0.000000,0.000000,0.000000,0.000000,-0.244289,0.033417,11,946691142.485076,0.193136,0.054798,-9.982441,0.976897,1.006491,-0.029593,-13.156224,-13.126631,-0.019817,0.103458,-0.004250,0.816340,0.416763,-1.667674,0.055346,0.000000,0.000000,0.000000,0.000000,0.000000,0.000000,0.000000,0.000000,0.000000,0.000000
112,1,0.000000,0.000000,0.000000,0.000000,0.000000,0.000000,0.000000,0.000000,0.000000,0.000000,-0.244289,0.033417,11,946691142.490081,0.193136,0.054798,-10.059082,2.258675,2.289041,-0.030366,-13.583483,-13.553117,-0.020112,0.164495,-0.004250,0.816340,0.349511,-1.654558,0.056170,0.000000,0.000000,0.000000,0.000000,0.000000,0.000000,0.000000,0.000000,0.000000,0.000000
113,1,0.000000,0.000000,0.000000,0.000000,0.000000,0.000000,0.000000,0.000000,0.000000,0.000000,-0.244289,0.033417,11,946691142.495056,0.116495,0.054798,-10.135722,3.357341,3.388495,-0.031154,-13.461409,-13.430256,-0.020264,0.164495,-0.004250,0.816340,0.282961,-1.636038,0.056988,0.000000,0.000000,0.000000,0.000000,0.000000,0.000000,0.000000,0.000000,0.000000,0.000000
114,1,0.000000,0.000000,0.000000,0.000000,0.000000,0.000000,0.000000,0.000000,0.000000,0.000000,-0.244187,0.033417,11,946691142.500183,0.116495,0.054798,-10.212363,4.150822,4.182777,-0.031954,-12.484817,-12.452863,-0.020445,-0.018616,-0.016999,0.816000,0.219433,-1.612933,0.056892,0.000000,0.000000,0.000000,0.000000,0.000000,0.000000,0.000000,0.000000,0.000000,0.000000
115,1,0.000000,0.000000,0.000000,0.000000,0.000000,0.000000,0.000000,0.000000,0.000000,0.000000,-0.244187,0.033417,11,946691142.505187,0.039855,0.054798,-10.212363,5.127415,5.160181,-0.032767,-10.714743,-10.681977,-0.020470,-0.201727,-0.016999,0.816000,0.165968,-1.585454,0.055883,0.000000,0.000000,0.000000,0.000000,0.000000,0.000000,0.000000,0.000000,0.000000,0.000000
116,1,0.000000,0.000000,0.000000,0.000000,0.000000,0.000000,0.000000,0.000000,0.000000,0.242425,-0.121212,0.033660,12,946691142.510131,0.039855,0.131438,-10.289003,6.165044,6.198818,-0.033774,-8.578448,-8.544674,-0.020513,-0.384838,-0.016999,0.816000,0.123745,-1.552783,0.053980,0.000000,0.000000,0.000000,0.000000,0.000000,0.000000,0.000000,0.000000,0.000000,0.000000
117,1,0.000000,0.000000,0.000000,0.000000,0.000000,0.000000,0.000000,0.000000,0.000000,0.242425,-0.121212,0.033660,12,946691142.515075,0.039855,0.131438,-10.289003,6.836451,6.871244,-0.034793,-5.953856,-5.919063,-0.020571,-0.445875,-0.016999,0.816000,0.094525,-1.516795,0.051776,0.000000,0.000000,0.000000,0.000000,0.000000,0.000000,0.000000,0.000000,0.000000,0.000000
118,1,0.000000,0.000000,0.000000,0.000000,0.000000,0.000000,0.000000,0.000000,0.000000,0.242425,-0.121212,0.033660,12,946691142.520080,0.116495,0.131438,-10.212363,7.202674,7.238498,-0.035824,-2.779931,-2.744107,-0.020838,-0.567950,-0.016999,0.816000,0.081236,-1.478556,0.048933,0.000000,0.000000,0.000000,0.000000,0.000000,0.000000,0.000000,0.000000,0.000000,0.000000
119,1,0.000000,0.000000,0.000000,0.000000,0.000000,0.000000,0.000000,0.000000,0.000000,0.242425,-0.121212,0.033660,12,946691142.525085,0.116495,0.208079,-10.212363,7.507858,7.544928,-0.037069,0.027772,0.064841,-0.021111,-0.506912,-0.016999,0.816000,0.082005,-1.438400,0.046396,0.000000,0.000000,0.000000,0.000000,0.000000,0.000000,0.000000,0.000000,0.000000,0.000000
120,1,0.000000,0.000000,0.000000,0.000000,0.000000,0.000000,0.000000,0.000000,0.000000,0.242425,-0.121212,0.033660,12,946691142.530090,0.193136,0.208079,-10.135722,7.813044,7.851374,-0.038331,3.079623,3.117953,-0.021598,-0.323801,-0.016999,0.816000,0.098450,-1.396712,0.044776,0.000000,0.000000,0.000000,0.000000,0.000000,0.000000,0.000000,0.000000,0.000000,0.000000
121,1,0.000000,0.000000,0.000000,0.000000,0.000000,0.000000,0.000000,0.000000,0.000000,0.242425,-0.121212,0.033660,12,946691142.535064,0.269776,0.284720,-9.982441,7.996155,8.035987,-0.039833,6.131474,6.171307,-0.022310,-0.079653,-0.016999,0.816000,0.130393,-1.353930,0.044379,0.000000,0.000000,0.000000,0.000000,0.000000,0.000000,0.000000,0.000000,0.000000,0.000000
122,1,0.000000,0.000000,0.000000,0.000000,0.000000,0.000000,0.000000,0.000000,0.000000,0.242526,-0.121263,0.033660,12,946691142.540191,0.346417,0.284720,-9.905801,8.118229,8.159587,-0.041357,9.183325,9.224683,-0.023251,-0.079653,0.000000,0.816340,0.179333,-1.309280,0.043971,0.000000,0.000000,0.000000,0.000000,0.000000,0.000000,0.000000,0.000000,0.000000,0.000000
123,1,0.000000,0.000000,0.000000,0.000000,0.000000,0.000000,0.000000,0.000000,0.000000,0.253790,0.126895,0.032166,13,946691142.545196,0.423058,0.284720,-9.752520,8.057192,8.100102,-0.042910,12.113102,12.156011,-0.024436,0.164495,0.000000,0.816340,0.242242,-1.265907,0.044794,0.000000,0.000000,0.000000,0.000000,0.000000,0.000000,0.000000,0.000000,0.000000,0.000000
124,1,0.000000,0.000000,0.000000,0.000000,0.000000,0.000000,0.000000,0.000000,0.000000,0.253790,0.126895,0.032166,13,946691142.550109,0.499698,0.361360,-9.599238,7.935118,7.979857,-0.044739,14.676656,14.721396,-0.025877,-0.079653,0.000000,0.816340,0.317072,-1.223406,0.044403,0.000000,0.000000,0.000000,0.000000,0.000000,0.000000,0.000000,0.000000,0.000000,0.000000
125,1,0.000000,0.000000,0.000000,0.000000,0.000000,0.000000,0.000000,0.000000,0.000000,0.253790,0.126895,0.032166,13,946691142.555084,0.576339,0.361360,-9.522597,7.874081,7.920679,-0.046597,17.179176,17.225773,-0.027571,-0.262764,0.000000,0.816340,0.405692,-1.180692,0.043096,0.000000,0.000000,0.000000,0.000000,0.000000,0.000000,0.000000,0.000000,0.000000,0.000000
126,1,0.000000,0.000000,0.000000,0.000000,0.000000,0.000000,0.000000,0.000000,0.000000,0.253790,0.126895,0.032166,13,946691142.560089,0.729620,0.438001,-9.369316,7.690970,7.739730,-0.048760,19.681692,19.730453,-0.029808,-0.506912,0.000000,0.816340,0.508287,-1.138145,0.040559,0.000000,0.000000,0.000000,0.000000,0.000000,0.000000,0.000000,0.000000,0.000000,0.000000
127,1,0.000000,0.000000,0.000000,0.000000,0.000000,0.000000,0.000000,0.000000,0.000000,0.253790,0.126895,0.032166,13,946691142.565093,0.806261,0.438001,-9.292676,7.324747,7.375710,-0.050963,21.207618,21.258582,-0.032326,-1.178320,0.000000,0.816340,0.618957,-1.097402,0.034662,0.000000,0.000000,0.000000,0.000000,0.000000,0.000000,0.000000,0.000000,0.000000,0.000000
128,1,0.000000,0.000000,0.000000,0.000000,0.000000,0.000000,0.000000,0.000000,0.000000,0.253790,0.126895,0.032166,13,946691142.570098,0.806261,0.438001,-9.216035,6.897488,6.950694,-0.053205,22.428359,22.481565,-0.034856,-1.422468,0.000000,0.816340,0.735745,-1.058749,0.027543,0.000000,0.000000,0.000000,0.000000,0.000000,0.000000,0.000000,0.000000,0.000000,0.000000
129,1,0.000000,0.000000,0.000000,0.000000,0.000000,0.000000,0.000000,0.000000,0.000000,-0.264848,0.132424,0.030823,14,946691142.575103,0.882901,0.514642,-9.062754,6.470229,6.526026,-0.055797,23.527026,23.582823,-0.037711,-1.544542,0.000000,0.816340,0.858554,-1.021668,0.019812,0.000000,0.000000,0.000000,0.000000,0.000000,0.000000,0.000000,0.000000,0.000000,0.000000
130,1,0.000000,0.000000,0.000000,0.000000,0.000000,0.000000,0.000000,0.000000,0.000000,-0.265179,0.132589,0.030823,14,946691142.580230,0.959542,0.514642,-9.062754,6.104007,6.162432,-0.058425,24.015321,24.073747,-0.040848,-1.300394,0.017002,0.817360,0.987183,-0.985639,0.013145,0.000000,0.000000,0.000000,0.000000,0.000000,0.000000,0.000000,0.000000,0.000000,0.000000
131,1,0.000000,0.000000,0.000000,0.000000,0.000000,0.000000,0.000000,0.000000,0.000000,-0.265179,0.132589,0.030823,14,946691142.585235,0.959542,0.591282,-8.986113,5.493637,5.555052,-0.061415,24.198432,24.259847,-0.044005,-1.178320,0.017002,0.817360,1.113792,-0.952839,0.007248,0.000000,0.000000,0.000000,0.000000,0.000000,0.000000,0.000000,0.000000,0.000000,0.000000
132,1,0.000000,0.000000,0.000000,0.000000,0.000000,0.000000,0.000000,0.000000,0.000000,-0.265179,0.132589,0.030823,14,946691142.590118,1.036183,0.591282,-8.986113,4.944304,5.008752,-0.064449,24.137395,24.201843,-0.047461,-0.751061,0.017002,0.817360,1.237609,-0.923359,0.003580,0.000000,0.000000,0.000000,0.000000,0.000000,0.000000,0.000000,0.000000,0.000000,0.000000
133,1,0.000000,0.000000,0.000000,0.000000,0.000000,0.000000,0.000000,0.000000,0.000000,-0.265179,0.132589,0.030823,14,946691142.595092,1.036183,0.591282,-9.062754,4.517045,4.584551,-0.067506,23.588062,23.655568,-0.050871,-0.262764,0.017002,0.817360,1.360783,-0.895539,0.002273,0.000000,0.000000,0.000000,0.000000,0.000000,0.000000,0.000000,0.000000,0.000000,0.000000
134,1,0.000000,0.000000,0.000000,0.000000,0.000000,0.000000,0.000000,0.000000,0.000000,-0.265179,0.132589,0.030823,14,946691142.600128,1.036183,0.591282,-9.139394,3.723563,3.794154,-0.070590,22.855618,22.926208,-0.054234,0.103458,0.017002,0.817360,1.481624,-0.871418,0.002794,0.000000,0.000000,0.000000,0.000000,0.000000,0.000000,0.000000,0.000000,0.000000,0.000000
135,1,0.000000,0.000000,0.000000,0.000000,0.000000,0.000000,0.000000,0.000000,0.000000,-0.647567,0.129513,0.031555,15,946691142.605133,1.036183,0.591282,-9.216035,3.235267,3.308969,-0.073702,21.817990,21.891691,-0.057550,0.347606,0.017002,0.817360,1.596456,-0.849843,0.004534,0.000000,0.000000,0.000000,0.000000,0.000000,0.000000,0.000000,0.000000,0.000000,0.000000
136,1,0.000000,0.000000,0.000000,0.000000,0.000000,0.000000,0.000000,0.000000,0.000000,-0.647567,0.129513,0.031555,15,946691142.610107,1.036183,0.591282,-9.292676,2.502823,2.579665,-0.076842,20.902433,20.979275,-0.060819,0.469680,0.017002,0.817360,1.705949,-0.831994,0.006870,0.000000,0.000000,0.000000,0.000000,0.000000,0.000000,0.000000,0.000000,0.000000,0.000000
137,1,0.000000,0.000000,0.000000,0.000000,0.000000,0.000000,0.000000,0.000000,0.000000,-0.647567,0.129513,0.031555,15,946691142.615112,0.959542,0.591282,-9.445957,2.197638,2.277628,-0.079990,19.925841,20.005831,-0.063676,0.286569,0.017002,0.817360,1.810524,-0.815604,0.008305,0.000000,0.000000,0.000000,0.000000,0.000000,0.000000,0.000000,0.000000,0.000000,0.000000
138,1,0.000000,0.000000,0.000000,0.000000,0.000000,0.000000,0.000000,0.000000,0.000000,-0.647028,0.129406,0.031555,15,946691142.620239,0.882901,0.591282,-9.599238,1.709342,1.792492,-0.083150,18.888212,18.971363,-0.066118,-0.140690,0.004250,0.816680,1.911543,-0.801447,0.007583,0.000000,0.000000,0.000000,0.000000,0.000000,0.000000,0.000000,0.000000,0.000000,0.000000
139,1,0.000000,0.000000,0.000000,0.000000,0.000000,0.000000,0.000000,0.000000,0.000000,-0.647028,0.129406,0.031555,15,946691142.625244,0.806261,0.591282,-9.752520,1.404157,1.490477,-0.086321,17.850582,17.936902,-0.068144,-0.323801,0.004250,0.816680,2.004387,-0.789042,0.005963,0.000000,0.000000,0.000000,0.000000,0.000000,0.000000,0.000000,0.000000,0.000000,0.000000
140,1,0.000000,0.000000,0.000000,0.000000,0.000000,0.000000,0.000000,0.000000,0.000000,-0.647028,0.129406,0.031555,15,946691142.630157,0.729620,0.591282,-9.982441,1.037934,1.127417,-0.089482,17.057102,17.146584,-0.069729,-0.690024,0.004250,0.816680,2.090984,-0.778607,0.002573,0.000000,0.000000,0.000000,0.000000,0.000000,0.000000,0.000000,0.000000,0.000000,0.000000
141,1,0.000000,0.000000,0.000000,0.000000,0.000000,0.000000,0.000000,0.000000,0.000000,-0.647028,0.129406,0.031555,15,946691142.635131,0.576339,0.591282,-10.135722,0.488601,0.581259,-0.092658,15.775324,15.867983,-0.070566,-0.812098,0.004250,0.816680,2.171088,-0.770835,-0.001467,0.000000,0.000000,0.000000,0.000000,0.000000,0.000000,0.000000,0.000000,0.000000,0.000000
142,1,0.000000,0.000000,0.000000,0.000000,0.000000,0.000000,0.000000,0.000000,0.000000,-0.626423,0.000000,0.032593,16,946691142.640136,0.499698,0.591282,-10.289003,0.061342,0.157190,-0.095848,14.737694,14.833542,-0.070987,-0.812098,0.004250,0.816680,2.245848,-0.765179,-0.005531,0.000000,0.000000,0.000000,0.000000,0.000000,0.000000,0.000000,0.000000,0.000000,0.000000
143,1,0.000000,0.000000,0.000000,0.000000,0.000000,0.000000,0.000000,0.000000,0.000000,-0.626423,0.000000,0.032593,16,946691142.645111,0.346417,0.591282,-10.442285,-0.549028,-0.449972,-0.099056,13.700065,13.799121,-0.070655,-0.690024,0.004250,0.816680,2.313854,-0.762555,-0.008964,0.000000,0.000000,0.000000,0.000000,0.000000,0.000000,0.000000,0.000000,0.000000,0.000000
144,1,0.000000,0.000000,0.000000,0.000000,0.000000,0.000000,0.000000,0.000000,0.000000,-0.626423,0.000000,0.032593,16,946691142.650115,0.269776,0.591282,-10.595566,-1.159398,-1.057113,-0.102285,12.479324,12.581608,-0.069907,-0.323801,0.004250,0.816680,2.375525,-0.762984,-0.010584,0.000000,0.000000,0.000000,0.000000,0.000000,0.000000,0.000000,0.000000,0.000000,0.000000
145,1,0.000000,0.000000,0.000000,0.000000,0.000000,0.000000,0.000000,0.000000,0.000000,-0.626423,0.000000,0.032593,16,946691142.655120,0.193136,0.591282,-10.672207,-1.647694,-1.542140,-0.105555,11.197546,11.303101,-0.068750,-0.201727,0.004250,0.816680,2.430182,-0.765812,-0.011594,0.000000,0.000000,0.000000,0.000000,0.000000,0.000000,0.000000,0.000000,0.000000,0.000000
146,1,0.000000,0.000000,0.000000,0.000000,0.000000,0.000000,0.000000,0.000000,0.000000,-0.624336,0.000000,0.032593,16,946691142.660247,0.116495,0.514642,-10.748847,-2.197028,-2.088502,-0.108525,9.671621,9.780145,-0.067179,0.164495,-0.042498,0.813960,2.477779,-0.772106,-0.010751,0.000000,0.000000,0.000000,0.000000,0.000000,0.000000,0.000000,0.000000,0.000000,0.000000
147,1,0.000000,0.000000,0.000000,0.000000,0.000000,0.000000,0.000000,0.000000,0.000000,-0.624336,0.000000,0.032593,16,946691142.665252,0.116495,0.514642,-10.825488,-2.685324,-2.573786,-0.111538,8.023621,8.135160,-0.065545,0.347606,-0.042498,0.813960,2.515852,-0.780538,-0.009011,0.000000,0.000000,0.000000,0.000000,0.000000,0.000000,0.000000,0.000000,0.000000,0.000000
148,1,0.000000,0.000000,0.000000,0.000000,0.000000,0.000000,0.000000,0.000000,0.000000,-0.394565,0.000000,0.030944,17,946691142.670196,0.116495,0.514642,-10.748847,-3.112583,-2.997954,-0.114629,6.131474,6.246102,-0.063863,0.408643,-0.042498,0.813960,2.544012,-0.790823,-0.006991,0.000000,0.000000,0.000000,0.000000,0.000000,0.000000,0.000000,0.000000,0.000000,0.000000
149,1,0.000000,0.000000,0.000000,0.000000,0.000000,0.000000,0.000000,0.000000,0.000000,-0.394565,0.000000,0.030944,17,946691142.675140,0.193136,0.514642,-10.748847,-3.417768,-3.299987,-0.117781,4.605548,4.723329,-0.062497,0.469680,-0.042498,0.813960,2.565097,-0.802537,-0.004669,0.000000,0.000000,0.000000,0.000000,0.000000,0.000000,0.000000,0.000000,0.000000,0.000000
150,1,0.000000,0.000000,0.000000,0.000000,0.000000,0.000000,0.000000,0.000000,0.000000,-0.394565,0.000000,0.030944,17,946691142.680145,0.269776,0.514642,-10.672207,-3.661916,-3.540900,-0.121016,3.140660,3.261676,-0.061473,0.347606,-0.042498,0.813960,2.579638,-0.815563,-0.002929,0.000000,0.000000,0.000000,0.000000,0.000000,0.000000,0.000000,0.000000,0.000000,0.000000
151,1,0.000000,0.000000,0.000000,0.000000,0.000000,0.000000,0.000000,0.000000,0.000000,-0.394565,0.000000,0.030944,17,946691142.685119,0.346417,0.514642,-10.595566,-3.722953,-3.598618,-0.124335,1.370586,1.494922,-0.060817,0.225532,-0.042498,0.813960,2.585811,-0.828672,-0.001807,0.000000,0.000000,0.000000,0.000000,0.000000,0.000000,0.000000,0.000000,0.000000,0.000000
152,1,0.000000,0.000000,0.000000,0.000000,0.000000,0.000000,0.000000,0.000000,0.000000,-0.394565,0.000000,0.030944,17,946691142.690185,0.423058,0.438001,-10.442285,-3.661916,-3.534548,-0.127368,-0.033265,0.094103,-0.060569,0.164495,-0.042498,0.813960,2.585593,-0.842224,-0.000974,0.000000,0.000000,0.000000,0.000000,0.000000,0.000000,0.000000,0.000000,0.000000,0.000000
153,1,0.000000,0.000000,0.000000,0.000000,0.000000,0.000000,0.000000,0.000000,0.000000,-0.394565,0.000000,0.030944,17,946691142.695129,0.576339,0.438001,-10.365644,-3.783990,-3.653511,-0.130479,-1.620228,-1.489748,-0.061142,-0.018616,-0.042498,0.813960,2.578704,-0.855843,-0.001066,0.000000,0.000000,0.000000,0.000000,0.000000,0.000000,0.000000,0.000000,0.000000,0.000000
154,1,0.000000,0.000000,0.000000,0.000000,0.000000,0.000000,0.000000,0.000000,0.000000,-0.394400,0.000000,0.030944,17,946691142.700256,0.729620,0.438001,-10.212363,-3.783990,-3.650300,-0.133690,-3.207190,-3.073500,-0.062612,-0.018616,-0.038251,0.813620,2.564669,-0.869996,-0.001161,0.000000,0.000000,0.000000,0.000000,0.000000,0.000000,0.000000,0.000000,0.000000,0.000000
155,1,0.000000,0.000000,0.000000,0.000000,0.000000,0.000000,0.000000,0.000000,0.000000,0.000000,-0.222356,0.036591,18,946691142.705291,0.806261,0.438001,-9.982441,-3.600879,-3.463858,-0.137021,-4.733115,-4.596095,-0.064646,-0.079653,-0.038251,0.813620,2.544039,-0.882728,-0.001562,0.000000,0.000000,0.000000,0.000000,0.000000,0.000000,0.000000,0.000000,0.000000,0.000000
156,1,0.000000,0.000000,0.000000,0.000000,0.000000,0.000000,0.000000,0.000000,0.000000,0.000000,-0.222356,0.036591,18,946691142.710205,0.882901,0.438001,-9.829160,-3.478805,-3.338352,-0.140453,-6.259041,-6.118588,-0.067251,-0.018616,-0.038251,0.813620,2.517279,-0.894303,-0.001654,0.000000,0.000000,0.000000,0.000000,0.000000,0.000000,0.000000,0.000000,0.000000,0.000000
157,1,0.000000,0.000000,0.000000,0.000000,0.000000,0.000000,0.000000,0.000000,0.000000,0.000000,-0.222356,0.036591,18,946691142.715148,0.959542,0.361360,-9.675879,-3.417768,-3.274236,-0.143532,-7.723930,-7.580398,-0.070466,0.103458,-0.038251,0.813620,2.483952,-0.906174,-0.001142,0.000000,0.000000,0.000000,0.000000,0.000000,0.000000,0.000000,0.000000,0.000000,0.000000
158,1,0.000000,0.000000,0.000000,0.000000,0.000000,0.000000,0.000000,0.000000,0.000000,0.000000,-0.222356,0.036591,18,946691142.720153,1.036183,0.361360,-9.522597,-3.112583,-2.965878,-0.146705,-8.639485,-8.492780,-0.074331,0.225532,-0.038251,0.813620,2.446472,-0.916594,-0.000014,0.000000,0.000000,0.000000,0.000000,0.000000,0.000000,0.000000,0.000000,0.000000,0.000000
159,1,0.000000,0.000000,0.000000,0.876184,0.000000,0.000000,0.000000,0.000000,0.000000,0.000000,-0.222356,0.036591,18,946691142.725158,1.036183,0.361360,-9.369316,-2.990509,-2.840536,-0.149973,-9.432966,-9.282993,-0.078402,0.469680,-0.038251,0.813620,2.405305,-0.926274,0.002337,0.000000,0.000000,0.000000,0.000000,0.000000,0.000000,0.000000,0.000000,0.000000,0.000000
160,1,0.000000,0.000000,0.000000,0.876184,0.000000,0.000000,0.000000,0.000000,0.000000,0.000000,-0.222356,0.036591,18,946691142.730163,1.036183,0.361360,-9.216035,-2.685324,-2.531987,-0.153337,-10.165410,-10.012073,-0.082692,0.347606,-0.038251,0.813620,2.360771,-0.934295,0.004077,0.000000,0.000000,0.000000,0.000000,0.000000,0.000000,0.000000,0.000000,0.000000,0.000000
161,1,0.000000,0.000000,0.000000,0.876184,0.000000,0.000000,0.000000,0.000000,0.000000,0.000000,-0.222356,0.036591,18,946691142.735137,1.036183,0.284720,-9.139394,-2.319102,-2.162839,-0.156263,-10.836818,-10.680555,-0.087152,0.530717,-0.038251,0.813620,2.313444,-0.941025,0.006717,0.000000,0.000000,0.000000,0.000000,0.000000,0.000000,0.000000,0.000000,0.000000,0.000000
