cnt,flyState,setpoint.h [m],setpoint.pitch [deg],setpoint.roll [deg],setpoint.yaw [deg],motval_avg [frac],motval_0 [frac],motval_1 [frac],motval_2 [frac],motval_3 [frac],hor_velocities.xv,hor_velocities.yv,hor_velocities.dt,hor_velocities.seqNum,att.ts [s],att.ax [m/s^2],att.ay [m/s^2],att.az [m/s^2],att.gx [deg/s],att.gx_kalman [deg/s],att.gx_bias_kalman [deg/s],att.gy [deg/s],att.gy_kalman [deg/s],att.gy_bias_kalman [deg/s],att.gz [deg/s],att.hv [m/sec],att.h [m],att.pitch [deg],att.roll [deg],att.yaw [deg],xPos [m],yPos [m],targetXVel [m/s],targetYVel [m/s],targetPitch [deg],targetRoll [deg],adj_pitch,adj_roll,adj_yaw,adj_h
1,0,0.000000,0.000000,0.000000,0.000000,0.000000,0.000000,0.000000,0.000000,0.000000,0.000000,0.000000,0.000000,0,946693330.112548,-39.163357,39.776482,-48.436874,6.164739,0.000000,0.000000,6.042665,0.000000,0.000000,-0.793481,0.000000,0.000000,0.000000,0.000000,0.000000,0.000000,0.000000,0.000000,0.000000,0.000000,0.000000,0.000000,0.000000,0.000000,0.000000
2,1,0.000000,0.000000,0.000000,0.000000,0.000000,0.000000,0.000000,0.000000,0.000000,0.596899,-0.596899,0.033721,4,946693330.469482,0.652980,0.514642,-9.829160,-0.243843,-0.243842,-0.000001,0.027772,0.027773,-0.000001,-0.079653,0.000000,0.805120,0.057339,-0.061865,0.015123,0.000000,0.000000,0.000000,0.000000,0.000000,0.000000,0.000000,0.000000,0.000000,0.000000
3,1,0.000000,0.000000,0.000000,0.000000,0.000000,0.000000,0.000000,0.000000,0.000000,0.596899,-0.596899,0.033721,4,946693330.469848,0.652980,0.591282,-9.829160,-0.121769,-0.121765,-0.000004,0.210883,0.210887,-0.000004,0.103458,0.000000,0.805120,0.059351,-0.060097,0.015161,0.000000,0.000000,0.000000,0.000000,0.000000,0.000000,0.000000,0.000000,0.000000,0.000000
4,1,0.000000,0.000000,0.000000,0.000000,0.000000,0.000000,0.000000,0.000000,0.000000,0.596899,-0.596899,0.033721,4,946693330.470001,0.652980,0.514642,-9.829160,-0.304880,-0.304873,-0.000007,0.088809,0.088816,-0.000008,0.042421,0.000000,0.805120,0.061299,-0.058563,0.015167,0.000000,0.000000,0.000000,0.000000,0.000000,0.000000,0.000000,0.000000,0.000000,0.000000
5,1,0.000000,0.000000,0.000000,0.000000,0.000000,0.000000,0.000000,0.000000,0.000000,0.596647,-0.596647,0.033721,4,946693330.470153,0.652980,0.514642,-9.829160,-0.182806,-0.182795,-0.000011,0.149846,0.149857,-0.000013,0.042421,10.059750,0.804780,0.063255,-0.057011,0.015174,0.000000,0.000000,0.000000,0.000000,0.000000,0.000000,0.000000,0.000000,0.000000,0.000000
6,1,0.000000,0.000000,0.000000,0.000000,0.000000,0.000000,0.000000,0.000000,0.000000,0.586540,-0.586540,0.034302,5,946693330.472869,0.652980,0.514642,-9.829160,-0.243843,-0.243816,-0.000027,0.210883,0.210910,-0.000033,0.042421,10.059750,0.804780,0.065773,-0.056083,0.015289,0.000000,0.000000,0.000000,0.000000,0.000000,0.000000,0.000000,0.000000,0.000000,0.000000
7,1,0.000000,0.000000,0.000000,0.000000,0.000000,0.000000,0.000000,0.000000,0.000000,0.586540,-0.586540,0.034302,5,946693330.473144,0.652980,0.514642,-9.829160,-0.182806,-0.182761,-0.000046,0.088809,0.088854,-0.000055,-0.079653,10.059750,0.804780,0.067742,-0.054544,0.015267,0.000000,0.000000,0.000000,0.000000,0.000000,0.000000,0.000000,0.000000,0.000000,0.000000
8,1,0.000000,0.000000,0.000000,0.000000,0.000000,0.000000,0.000000,0.000000,0.000000,0.586540,-0.586540,0.034302,5,946693330.473297,0.652980,0.514642,-9.829160,-0.182806,-0.182742,-0.000064,0.088809,0.088873,-0.000078,0.042421,10.059750,0.804780,0.069700,-0.052983,0.015273,0.000000,0.000000,0.000000,0.000000,0.000000,0.000000,0.000000,0.000000,0.000000,0.000000
9,1,0.000000,0.000000,0.000000,0.000000,0.000000,0.000000,0.000000,0.000000,0.000000,0.586540,-0.586540,0.034302,5,946693330.473449,0.652980,0.514642,-9.829160,-0.182806,-0.182722,-0.000084,0.088809,0.088893,-0.000102,0.103458,10.059750,0.804780,0.071656,-0.051422,0.015289,0.000000,0.000000,0.000000,0.000000,0.000000,0.000000,0.000000,0.000000,0.000000,0.000000
10,1,0.000000,0.000000,0.000000,0.000000,0.000000,0.000000,0.000000,0.000000,0.000000,0.586540,-0.586540,0.034302,5,946693330.473571,0.652980,0.514642,-9.829160,-0.243843,-0.243739,-0.000104,0.210883,0.210987,-0.000127,0.103458,10.059750,0.804780,0.073623,-0.049865,0.015302,0.000000,0.000000,0.000000,0.000000,0.000000,0.000000,0.000000,0.000000,0.000000,0.000000
11,1,0.000000,0.000000,0.000000,0.000000,0.000000,0.000000,0.000000,0.000000,0.000000,0.586540,-0.586540,0.034302,5,946693330.473693,0.652980,0.514642,-9.829160,-0.243843,-0.243719,-0.000125,0.027772,0.027897,-0.000152,0.042421,10.059750,0.804780,0.075566,-0.048309,0.015307,0.000000,0.000000,0.000000,0.000000,0.000000,0.000000,0.000000,0.000000,0.000000,0.000000
12,1,0.000000,0.000000,0.000000,0.000000,0.000000,0.000000,0.000000,0.000000,0.000000,0.586540,-0.586540,0.034302,5,946693330.473846,0.652980,0.514642,-9.829160,-0.182806,-0.182660,-0.000146,0.210883,0.211029,-0.000178,0.042421,10.059750,0.804780,0.077537,-0.046752,0.015313,0.000000,0.000000,0.000000,0.000000,0.000000,0.000000,0.000000,0.000000,0.000000,0.000000
13,1,0.000000,0.000000,0.000000,0.000000,0.000000,0.000000,0.000000,0.000000,0.000000,0.586788,-0.586788,0.034302,5,946693330.473968,0.652980,0.514642,-9.829160,-0.304880,-0.304712,-0.000168,0.149846,0.150014,-0.000205,-0.018616,10.064000,0.805120,0.079492,-0.045205,0.015311,0.000000,0.000000,0.000000,0.000000,0.000000,0.000000,0.000000,0.000000,0.000000,0.000000
14,1,0.000000,0.000000,0.000000,0.000000,0.000000,0.000000,0.000000,0.000000,0.000000,0.586788,-0.586788,0.034302,5,946693330.474121,0.652980,0.591282,-9.829160,-0.243843,-0.243649,-0.000194,0.149846,0.150040,-0.000232,0.042421,10.064000,0.805120,0.081451,-0.043428,0.015318,0.000000,0.000000,0.000000,0.000000,0.000000,0.000000,0.000000,0.000000,0.000000,0.000000
15,1,0.000000,0.000000,0.000000,0.000000,0.000000,0.000000,0.000000,0.000000,0.000000,0.586788,-0.586788,0.034302,5,946693330.474243,0.652980,0.514642,-9.829160,-0.182806,-0.182589,-0.000217,0.088809,0.089026,-0.000261,0.042421,10.064000,0.805120,0.083397,-0.041869,0.015323,0.000000,0.000000,0.000000,0.000000,0.000000,0.000000,0.000000,0.000000,0.000000,0.000000
16,1,0.000000,0.000000,0.000000,0.000000,0.000000,0.000000,0.000000,0.000000,0.000000,0.586788,-0.586788,0.034302,5,946693330.474395,0.652980,0.514642,-9.829160,-0.243843,-0.243602,-0.000241,0.210883,0.211124,-0.000290,-0.018616,10.064000,0.805120,0.085362,-0.040325,0.015320,0.000000,0.000000,0.000000,0.000000,0.000000,0.000000,0.000000,0.000000,0.000000,0.000000
17,1,0.000000,0.000000,0.000000,0.000000,0.000000,0.000000,0.000000,0.000000,0.000000,0.586788,-0.586788,0.034302,5,946693330.474517,0.652980,0.514642,-9.829160,-0.060732,-0.060467,-0.000265,0.088809,0.089074,-0.000320,0.103458,10.064000,0.805120,0.087305,-0.038753,0.015333,0.000000,0.000000,0.000000,0.000000,0.000000,0.000000,0.000000,0.000000,0.000000,0.000000
18,1,0.000000,0.000000,0.000000,0.000000,0.000000,0.000000,0.000000,0.000000,0.000000,0.586788,-0.586788,0.034302,5,946693330.474639,0.652980,0.514642,-9.829160,-0.121769,-0.121479,-0.000290,0.027772,0.028062,-0.000351,0.225532,10.064000,0.805120,0.089239,-0.037189,0.015360,0.000000,0.000000,0.000000,0.000000,0.000000,0.000000,0.000000,0.000000,0.000000,0.000000
19,1,0.000000,0.000000,0.000000,0.000000,0.000000,0.000000,0.000000,0.000000,0.000000,0.586788,-0.586788,0.034302,5,946693330.474792,0.652980,0.591282,-9.905801,-0.243843,-0.243524,-0.000319,0.027772,0.028091,-0.000382,0.042421,10.064000,0.805120,0.091158,-0.035431,0.015367,0.000000,0.000000,0.000000,0.000000,0.000000,0.000000,0.000000,0.000000,0.000000,0.000000
20,1,0.000000,0.000000,0.000000,0.000000,0.000000,0.000000,0.000000,0.000000,0.000000,0.586788,-0.586788,0.034302,5,946693330.475006,0.652980,0.591282,-9.905801,-0.121769,-0.121419,-0.000350,0.088809,0.089159,-0.000414,-0.018616,10.064000,0.805120,0.093091,-0.033662,0.015363,0.000000,0.000000,0.000000,0.000000,0.000000,0.000000,0.000000,0.000000,0.000000,0.000000
21,1,0.000000,0.000000,0.000000,0.000000,0.000000,0.000000,0.000000,0.000000,0.000000,0.586788,-0.586788,0.034302,5,946693330.475158,0.652980,0.591282,-9.905801,-0.243843,-0.243462,-0.000381,0.149846,0.150227,-0.000447,-0.018616,0.004250,0.805120,0.095026,-0.031906,0.015360,0.000000,0.000000,0.000000,0.000000,0.000000,0.000000,0.000000,0.000000,0.000000,0.000000
22,1,0.000000,0.000000,0.000000,0.000000,0.000000,0.000000,0.000000,0.000000,0.000000,0.586788,-0.586788,0.034302,5,946693330.475280,0.652980,0.591282,-9.905801,-0.121769,-0.121356,-0.000413,0.088809,0.089222,-0.000481,-0.140690,0.004250,0.805120,0.096948,-0.030129,0.015343,0.000000,0.000000,0.000000,0.000000,0.000000,0.000000,0.000000,0.000000,0.000000,0.000000
23,1,0.000000,0.000000,0.000000,0.000000,0.000000,0.000000,0.000000,0.000000,0.000000,0.586788,-0.586788,0.034302,5,946693330.475463,0.652980,0.591282,-9.829160,-0.182806,-0.182360,-0.000446,0.210883,0.211329,-0.000516,0.042421,0.004250,0.805120,0.098912,-0.028357,0.015350,0.000000,0.000000,0.000000,0.000000,0.000000,0.000000,0.000000,0.000000,0.000000,0.000000
24,1,0.000000,0.000000,0.000000,0.000000,0.000000,0.000000,0.000000,0.000000,0.000000,0.586788,-0.586788,0.034302,5,946693330.475708,0.652980,0.591282,-9.829160,-0.182806,-0.182326,-0.000480,0.210883,0.211363,-0.000553,-0.018616,0.004250,0.805120,0.100888,-0.026597,0.015346,0.000000,0.000000,0.000000,0.000000,0.000000,0.000000,0.000000,0.000000,0.000000,0.000000
25,1,0.000000,0.000000,0.000000,0.000000,0.000000,0.000000,0.000000,0.000000,0.000000,0.586788,-0.586788,0.034302,5,946693330.475952,0.652980,0.591282,-9.829160,-0.182806,-0.182290,-0.000516,0.088809,0.089325,-0.000591,0.042421,0.004250,0.805120,0.102833,-0.024838,0.015356,0.000000,0.000000,0.000000,0.000000,0.000000,0.000000,0.000000,0.000000,0.000000,0.000000
26,1,0.000000,0.000000,0.000000,0.000000,0.000000,0.000000,0.000000,0.000000,0.000000,0.586788,-0.586788,0.034302,5,946693330.476196,0.652980,0.591282,-9.829160,-0.243843,-0.243290,-0.000553,0.271920,0.272473,-0.000630,-0.018616,0.004250,0.805120,0.104823,-0.023094,0.015352,0.000000,0.000000,0.000000,0.000000,0.000000,0.000000,0.000000,0.000000,0.000000,0.000000
27,1,0.000000,0.000000,0.000000,0.000000,0.000000,0.000000,0.000000,0.000000,0.000000,0.586788,-0.586788,0.034302,5,946693330.476440,0.652980,0.591282,-9.829160,-0.182806,-0.182215,-0.000591,0.210883,0.211474,-0.000671,0.042421,0.004250,0.805120,0.106797,-0.021336,0.015362,0.000000,0.000000,0.000000,0.000000,0.000000,0.000000,0.000000,0.000000,0.000000,0.000000
28,1,0.000000,0.000000,0.000000,0.000000,0.000000,0.000000,0.000000,0.000000,0.000000,0.586788,-0.586788,0.034302,5,946693330.477020,0.652980,0.591282,-9.829160,-0.182806,-0.182174,-0.000632,0.210883,0.211515,-0.000715,0.103458,0.004250,0.805120,0.108843,-0.019637,0.015422,0.000000,0.000000,0.000000,0.000000,0.000000,0.000000,0.000000,0.000000,0.000000,0.000000
29,1,0.000000,0.000000,0.000000,0.000000,0.000000,0.000000,0.000000,0.000000,0.000000,0.586788,-0.586788,0.034302,5,946693330.477264,0.652980,0.591282,-9.829160,-0.121769,-0.121094,-0.000675,0.088809,0.089484,-0.000761,0.103458,0.000000,0.805120,0.110788,-0.017864,0.015447,0.000000,0.000000,0.000000,0.000000,0.000000,0.000000,0.000000,0.000000,0.000000,0.000000
30,1,0.000000,0.000000,0.000000,0.000000,0.000000,0.000000,0.000000,0.000000,0.000000,0.586788,-0.586788,0.034302,5,946693330.477569,0.652980,0.591282,-9.752520,-0.243843,-0.243123,-0.000720,0.210883,0.211603,-0.000808,-0.079653,0.000000,0.805120,0.112790,-0.016121,0.015423,0.000000,0.000000,0.000000,0.000000,0.000000,0.000000,0.000000,0.000000,0.000000,0.000000
31,1,0.000000,0.000000,0.000000,0.000000,0.000000,0.000000,0.000000,0.000000,0.000000,0.586788,-0.586788,0.034302,5,946693330.477813,0.729620,0.591282,-9.752520,-0.182806,-0.182041,-0.000765,0.149846,0.150611,-0.000863,0.042421,0.000000,0.805120,0.114998,-0.014349,0.015433,0.000000,0.000000,0.000000,0.000000,0.000000,0.000000,0.000000,0.000000,0.000000,0.000000
32,1,0.000000,0.000000,0.000000,0.000000,0.000000,0.000000,0.000000,0.000000,0.000000,0.586788,-0.586788,0.034302,5,946693330.478057,0.729620,0.591282,-9.829160,-0.182806,-0.181994,-0.000812,0.149846,0.150658,-0.000919,0.042421,0.000000,0.805120,0.117187,-0.012592,0.015444,0.000000,0.000000,0.000000,0.000000,0.000000,0.000000,0.000000,0.000000,0.000000,0.000000
33,1,0.000000,0.000000,0.000000,0.000000,0.000000,0.000000,0.000000,0.000000,0.000000,0.586788,-0.586788,0.034302,5,946693330.478424,0.652980,0.591282,-9.752520,-0.060732,-0.059870,-0.000862,0.149846,0.150708,-0.000972,0.042421,0.000000,0.805120,0.119179,-0.010798,0.015459,0.000000,0.000000,0.000000,0.000000,0.000000,0.000000,0.000000,0.000000,0.000000,0.000000
34,1,0.000000,0.000000,0.000000,0.000000,0.000000,0.000000,0.000000,0.000000,0.000000,0.586788,-0.586788,0.034302,5,946693330.478668,0.729620,0.591282,-9.829160,-0.182806,-0.181894,-0.000912,0.271920,0.272832,-0.001032,0.042421,0.000000,0.805120,0.121397,-0.009041,0.015469,0.000000,0.000000,0.000000,0.000000,0.000000,0.000000,0.000000,0.000000,0.000000,0.000000
35,1,0.000000,0.000000,0.000000,0.000000,0.000000,0.000000,0.000000,0.000000,0.000000,0.586788,-0.586788,0.034302,5,946693330.478912,0.652980,0.591282,-9.829160,-0.182806,-0.181843,-0.000963,0.271920,0.272883,-0.001086,0.042421,0.000000,0.805120,0.123383,-0.007285,0.015480,0.000000,0.000000,0.000000,0.000000,0.000000,0.000000,0.000000,0.000000,0.000000,0.000000
36,1,0.000000,0.000000,0.000000,0.000000,0.000000,0.000000,0.000000,0.000000,0.000000,0.586788,-0.586788,0.034302,5,946693330.479156,0.652980,0.591282,-9.829160,-0.243843,-0.242827,-0.001016,0.271920,0.272936,-0.001143,-0.079653,0.000000,0.805120,0.125368,-0.005545,0.015460,0.000000,0.000000,0.000000,0.000000,0.000000,0.000000,0.000000,0.000000,0.000000,0.000000
37,1,0.000000,0.000000,0.000000,0.000000,0.000000,0.000000,0.000000,0.000000,0.000000,0.586292,-0.586292,0.034302,5,946693330.479400,0.652980,0.591282,-9.829160,-0.121769,-0.120699,-0.001070,0.332957,0.334027,-0.001200,0.103458,-0.008500,0.804440,0.127368,-0.003775,0.015486,0.000000,0.000000,0.000000,0.000000,0.000000,0.000000,0.000000,0.000000,0.000000,0.000000
38,1,0.000000,0.000000,0.000000,0.000000,0.000000,0.000000,0.000000,0.000000,0.000000,0.586292,-0.586292,0.034302,5,946693330.479644,0.729620,0.514642,-9.829160,-0.243843,-0.242725,-0.001118,0.271920,0.273038,-0.001266,0.042421,-0.008500,0.804440,0.129583,-0.002268,0.015496,0.000000,0.000000,0.000000,0.000000,0.000000,0.000000,0.000000,0.000000,0.000000,0.000000
39,1,0.000000,0.000000,0.000000,0.000000,0.000000,0.000000,0.000000,0.000000,0.000000,0.586292,-0.586292,0.034302,5,946693330.479888,0.729620,0.514642,-9.829160,-0.243843,-0.242676,-0.001167,0.149846,0.151013,-0.001334,0.042421,-0.008500,0.804440,0.131768,-0.000762,0.015506,0.000000,0.000000,0.000000,0.000000,0.000000,0.000000,0.000000,0.000000,0.000000,0.000000
40,1,0.000000,0.000000,0.000000,0.000000,0.000000,0.000000,0.000000,0.000000,0.000000,0.586292,-0.586292,0.034302,5,946693330.480163,0.729620,0.514642,-9.829160,-0.243843,-0.242625,-0.001218,0.271920,0.273138,-0.001403,0.042421,-0.008500,0.804440,0.133991,0.000737,0.015518,0.000000,0.000000,0.000000,0.000000,0.000000,0.000000,0.000000,0.000000,0.000000,0.000000
41,1,0.000000,0.000000,0.000000,0.000000,0.000000,0.000000,0.000000,0.000000,0.000000,0.586292,-0.586292,0.034302,5,946693330.480468,0.652980,0.591282,-9.829160,-0.182806,-0.181529,-0.001277,0.271920,0.273197,-0.001467,0.103458,-0.008500,0.804440,0.135990,0.002479,0.015550,0.000000,0.000000,0.000000,0.000000,0.000000,0.000000,0.000000,0.000000,0.000000,0.000000
42,1,0.000000,0.000000,0.000000,0.000000,0.000000,0.000000,0.000000,0.000000,0.000000,0.586292,-0.586292,0.034302,5,946693330.480712,0.652980,0.591282,-9.829160,-0.182806,-0.181468,-0.001338,0.393994,0.395332,-0.001531,0.164495,-0.008500,0.804440,0.138001,0.004232,0.015590,0.000000,0.000000,0.000000,0.000000,0.000000,0.000000,0.000000,0.000000,0.000000,0.000000
43,1,0.000000,0.000000,0.000000,0.000000,0.000000,0.000000,0.000000,0.000000,0.000000,0.586292,-0.586292,0.034302,5,946693330.480957,0.652980,0.591282,-9.829160,-0.182806,-0.181406,-0.001400,0.271920,0.273320,-0.001598,0.042421,-0.008500,0.804440,0.139981,0.005984,0.015600,0.000000,0.000000,0.000000,0.000000,0.000000,0.000000,0.000000,0.000000,0.000000,0.000000
44,1,0.000000,0.000000,0.000000,0.000000,0.000000,0.000000,0.000000,0.000000,0.000000,0.586292,-0.586292,0.034302,5,946693330.481201,0.652980,0.591282,-9.829160,-0.060732,-0.059268,-0.001464,0.271920,0.273384,-0.001665,0.042421,-0.008500,0.804440,0.141961,0.007765,0.015610,0.000000,0.000000,0.000000,0.000000,0.000000,0.000000,0.000000,0.000000,0.000000,0.000000
45,1,0.000000,0.000000,0.000000,0.000000,0.000000,0.000000,0.000000,0.000000,0.000000,0.586540,-0.586540,0.034302,5,946693330.481445,0.652980,0.591282,-9.829160,-0.243843,-0.242314,-0.001529,0.271920,0.273449,-0.001734,0.042421,-0.004250,0.804780,0.143940,0.009501,0.015621,0.000000,0.000000,0.000000,0.000000,0.000000,0.000000,0.000000,0.000000,0.000000,0.000000
46,1,0.000000,0.000000,0.000000,0.000000,0.000000,0.000000,0.000000,0.000000,0.000000,0.586540,-0.586540,0.034302,5,946693330.481689,0.652980,0.591282,-9.752520,-0.121769,-0.120174,-0.001595,0.393994,0.395589,-0.001805,0.042421,-0.004250,0.804780,0.145963,0.011281,0.015631,0.000000,0.000000,0.000000,0.000000,0.000000,0.000000,0.000000,0.000000,0.000000,0.000000
47,1,0.000000,0.000000,0.000000,0.000000,0.000000,0.000000,0.000000,0.000000,0.000000,0.586540,-0.586540,0.034302,5,946693330.481933,0.652980,0.591282,-9.752520,-0.060732,-0.059069,-0.001663,0.332957,0.334620,-0.001878,0.103458,-0.004250,0.804780,0.147971,0.013074,0.015656,0.000000,0.000000,0.000000,0.000000,0.000000,0.000000,0.000000,0.000000,0.000000,0.000000
48,1,0.000000,0.000000,0.000000,0.000000,0.000000,0.000000,0.000000,0.000000,0.000000,0.586540,-0.586540,0.034302,5,946693330.482238,0.652980,0.591282,-9.752520,-0.304880,-0.303148,-0.001733,0.210883,0.212616,-0.001952,0.103458,-0.004250,0.804780,0.149962,0.014790,0.015688,0.000000,0.000000,0.000000,0.000000,0.000000,0.000000,0.000000,0.000000,0.000000,0.000000
49,1,0.000000,0.000000,0.000000,0.000000,0.000000,0.000000,0.000000,0.000000,0.000000,0.586540,-0.586540,0.034302,5,946693330.482543,0.652980,0.591282,-9.752520,-0.182806,-0.181002,-0.001804,0.332957,0.334761,-0.002027,0.042421,-0.004250,0.804780,0.151990,0.016542,0.015701,0.000000,0.000000,0.000000,0.000000,0.000000,0.000000,0.000000,0.000000,0.000000,0.000000
50,1,0.000000,0.000000,0.000000,0.000000,0.000000,0.000000,0.000000,0.000000,0.000000,0.586540,-0.586540,0.034302,5,946693330.482788,0.652980,0.591282,-9.752520,-0.060732,-0.058856,-0.001876,0.332957,0.334833,-0.002104,-0.079653,-0.004250,0.804780,0.153997,0.018334,0.015681,0.000000,0.000000,0.000000,0.000000,0.000000,0.000000,0.000000,0.000000,0.000000,0.000000
51,1,0.000000,0.000000,0.000000,0.000000,0.000000,0.000000,0.000000,0.000000,0.000000,0.586540,-0.586540,0.034302,5,946693330.483032,0.652980,0.591282,-9.829160,-0.304880,-0.302931,-0.001949,0.332957,0.334906,-0.002182,-0.140690,-0.004250,0.804780,0.155987,0.020053,0.015647,0.000000,0.000000,0.000000,0.000000,0.000000,0.000000,0.000000,0.000000,0.000000,0.000000
52,1,0.000000,0.000000,0.000000,0.000000,0.000000,0.000000,0.000000,0.000000,0.000000,0.586540,-0.586540,0.034302,5,946693330.483276,0.652980,0.591282,-9.829160,-0.182806,-0.180783,-0.002023,0.393994,0.396017,-0.002261,0.042421,-0.004250,0.804780,0.157992,0.021800,0.015657,0.000000,0.000000,0.000000,0.000000,0.000000,0.000000,0.000000,0.000000,0.000000,0.000000
53,1,0.000000,0.000000,0.000000,0.000000,0.000000,0.000000,0.000000,0.000000,0.000000,0.586788,-0.586788,0.034302,5,946693330.483520,0.652980,0.591282,-9.829160,-0.121769,-0.119670,-0.002099,0.271920,0.274019,-0.002342,0.042421,0.008500,0.805120,0.159966,0.023562,0.015668,0.000000,0.000000,0.000000,0.000000,0.000000,0.000000,0.000000,0.000000,0.000000,0.000000
54,1,0.000000,0.000000,0.000000,0.000000,0.000000,0.000000,0.000000,0.000000,0.000000,0.586788,-0.586788,0.034302,5,946693330.483764,0.652980,0.591282,-9.829160,-0.121769,-0.119593,-0.002176,0.332957,0.335133,-0.002424,-0.018616,0.008500,0.805120,0.161954,0.025323,0.015663,0.000000,0.000000,0.000000,0.000000,0.000000,0.000000,0.000000,0.000000,0.000000,0.000000
55,1,0.000000,0.000000,0.000000,0.000000,0.000000,0.000000,0.000000,0.000000,0.000000,0.586788,-0.586788,0.034302,5,946693330.484008,0.652980,0.591282,-9.829160,-0.182806,-0.180552,-0.002254,0.332957,0.335211,-0.002507,-0.018616,0.008500,0.805120,0.163942,0.027069,0.015659,0.000000,0.000000,0.000000,0.000000,0.000000,0.000000,0.000000,0.000000,0.000000,0.000000
56,1,0.000000,0.000000,0.000000,0.000000,0.000000,0.000000,0.000000,0.000000,0.000000,0.586788,-0.586788,0.034302,5,946693330.484252,0.652980,0.591282,-9.829160,-0.121769,-0.119436,-0.002333,0.271920,0.274253,-0.002591,0.103458,0.008500,0.805120,0.165914,0.028829,0.015684,0.000000,0.000000,0.000000,0.000000,0.000000,0.000000,0.000000,0.000000,0.000000,0.000000
57,1,0.000000,0.000000,0.000000,0.000000,0.000000,0.000000,0.000000,0.000000,0.000000,0.586788,-0.586788,0.034302,5,946693330.490600,0.652980,0.591282,-9.905801,-0.121769,-0.119322,-0.002447,0.271920,0.274367,-0.002712,-0.079653,0.008500,0.805120,0.169577,0.029876,0.015178,0.000000,0.000000,0.000000,0.000000,0.000000,0.000000,0.000000,0.000000,0.000000,0.000000
58,1,0.000000,0.000000,0.000000,0.000000,0.000000,0.000000,0.000000,0.000000,0.000000,0.586788,-0.586788,0.034302,5,946693330.490875,0.652980,0.591282,-9.829160,-0.243843,-0.241280,-0.002563,0.332957,0.335520,-0.002835,-0.079653,0.008500,0.805120,0.171605,0.031629,0.015156,0.000000,0.000000,0.000000,0.000000,0.000000,0.000000,0.000000,0.000000,0.000000,0.000000
59,1,0.000000,0.000000,0.000000,0.000000,0.000000,0.000000,0.000000,0.000000,0.000000,0.586788,-0.586788,0.034302,5,946693330.490997,0.652980,0.591282,-9.829160,-0.243843,-0.241164,-0.002679,0.271920,0.274599,-0.002959,0.042421,0.008500,0.805120,0.173573,0.033418,0.015162,0.000000,0.000000,0.000000,0.000000,0.000000,0.000000,0.000000,0.000000,0.000000,0.000000
60,1,0.000000,0.000000,0.000000,0.000000,0.000000,0.000000,0.000000,0.000000,0.000000,0.586788,-0.586788,0.034302,5,946693330.491149,0.652980,0.514642,-9.829160,-0.182806,-0.180025,-0.002781,0.271920,0.274701,-0.003084,0.042421,0.008500,0.805120,0.175548,0.034971,0.015168,0.000000,0.000000,0.000000,0.000000,0.000000,0.000000,0.000000,0.000000,0.000000,0.000000
61,1,0.000000,0.000000,0.000000,0.000000,0.000000,0.000000,0.000000,0.000000,0.000000,0.586540,-0.586540,0.034302,5,946693330.491302,0.652980,0.514642,-9.829160,-0.121769,-0.118886,-0.002883,0.332957,0.335840,-0.003209,0.103458,0.000000,0.804780,0.177532,0.036531,0.015184,0.000000,0.000000,0.000000,0.000000,0.000000,0.000000,0.000000,0.000000,0.000000,0.000000
62,1,0.000000,0.000000,0.000000,0.000000,0.000000,0.000000,0.000000,0.000000,0.000000,0.586540,-0.586540,0.034302,5,946693330.491424,0.652980,0.514642,-9.829160,-0.121769,-0.118783,-0.002986,0.393994,0.396980,-0.003335,0.164495,0.000000,0.804780,0.179511,0.038094,0.015204,0.000000,0.000000,0.000000,0.000000,0.000000,0.000000,0.000000,0.000000,0.000000,0.000000
63,1,0.000000,0.000000,0.000000,0.000000,0.000000,0.000000,0.000000,0.000000,0.000000,0.586540,-0.586540,0.034302,5,946693330.491577,0.652980,0.514642,-9.829160,-0.243843,-0.240753,-0.003090,0.393994,0.397084,-0.003462,0.103458,0.000000,0.804780,0.181501,0.039634,0.015220,0.000000,0.000000,0.000000,0.000000,0.000000,0.000000,0.000000,0.000000,0.000000,0.000000
64,1,0.000000,0.000000,0.000000,0.000000,0.000000,0.000000,0.000000,0.000000,0.000000,0.586540,-0.586540,0.034302,5,946693330.491729,0.652980,0.514642,-9.829160,-0.243843,-0.240649,-0.003194,0.455031,0.458225,-0.003589,-0.018616,0.000000,0.804780,0.183499,0.041173,0.015217,0.000000,0.000000,0.000000,0.000000,0.000000,0.000000,0.000000,0.000000,0.000000,0.000000
65,1,0.000000,0.000000,0.000000,0.000000,0.000000,0.000000,0.000000,0.000000,0.000000,0.586540,-0.586540,0.034302,5,946693330.491851,0.652980,0.591282,-9.829160,-0.243843,-0.240529,-0.003314,0.393994,0.397308,-0.003717,0.042421,0.000000,0.804780,0.185474,0.042956,0.015222,0.000000,0.000000,0.000000,0.000000,0.000000,0.000000,0.000000,0.000000,0.000000,0.000000
66,1,0.000000,0.000000,0.000000,0.000000,0.000000,0.000000,0.000000,0.000000,0.000000,0.586540,-0.586540,0.034302,5,946693330.492004,0.652980,0.591282,-9.829160,-0.304880,-0.301445,-0.003435,0.332957,0.336392,-0.003846,0.042421,0.000000,0.804780,0.187451,0.044720,0.015229,0.000000,0.000000,0.000000,0.000000,0.000000,0.000000,0.000000,0.000000,0.000000,0.000000
67,1,0.000000,0.000000,0.000000,0.000000,0.000000,0.000000,0.000000,0.000000,0.000000,0.586540,-0.586540,0.034302,5,946693330.492187,0.652980,0.591282,-9.829160,-0.060732,-0.057175,-0.003557,0.332957,0.336514,-0.003976,0.042421,0.000000,0.804780,0.189437,0.046519,0.015236,0.000000,0.000000,0.000000,0.000000,0.000000,0.000000,0.000000,0.000000,0.000000,0.000000
68,1,0.000000,0.000000,0.000000,0.000000,0.000000,0.000000,0.000000,0.000000,0.000000,0.586540,-0.586540,0.034302,5,946693330.492340,0.652980,0.514642,-9.829160,-0.365917,-0.362253,-0.003664,0.455031,0.458695,-0.004106,-0.018616,0.000000,0.804780,0.191431,0.048035,0.015233,0.000000,0.000000,0.000000,0.000000,0.000000,0.000000,0.000000,0.000000,0.000000,0.000000
69,1,0.000000,0.000000,0.000000,0.000000,0.000000,0.000000,0.000000,0.000000,0.000000,0.586292,-0.586292,0.034302,5,946693330.492462,0.652980,0.514642,-9.829160,-0.182806,-0.179035,-0.003771,0.516068,0.519839,-0.004237,-0.018616,-0.008500,0.804440,0.193416,0.049584,0.015231,0.000000,0.000000,0.000000,0.000000,0.000000,0.000000,0.000000,0.000000,0.000000,0.000000
70,1,0.000000,0.000000,0.000000,0.000000,0.000000,0.000000,0.000000,0.000000,0.000000,0.586292,-0.586292,0.034302,5,946693330.492614,0.652980,0.514642,-9.829160,-0.182806,-0.178927,-0.003879,0.393994,0.397873,-0.004369,0.042421,-0.008500,0.804440,0.195397,0.051126,0.015238,0.000000,0.000000,0.000000,0.000000,0.000000,0.000000,0.000000,0.000000,0.000000,0.000000
71,1,0.000000,0.000000,0.000000,0.000000,0.000000,0.000000,0.000000,0.000000,0.000000,0.586292,-0.586292,0.034302,5,946693330.492767,0.652980,0.514642,-9.829160,-0.182806,-0.178819,-0.003987,0.332957,0.336944,-0.004502,-0.079653,-0.008500,0.804440,0.197368,0.052667,0.015225,0.000000,0.000000,0.000000,0.000000,0.000000,0.000000,0.000000,0.000000,0.000000,0.000000
72,1,0.000000,0.000000,0.000000,0.000000,0.000000,0.000000,0.000000,0.000000,0.000000,0.586292,-0.586292,0.034302,5,946693330.492889,0.652980,0.591282,-9.829160,-0.182806,-0.178693,-0.004113,0.393994,0.398107,-0.004635,-0.018616,-0.008500,0.804440,0.199334,0.054449,0.015223,0.000000,0.000000,0.000000,0.000000,0.000000,0.000000,0.000000,0.000000,0.000000,0.000000
73,1,0.000000,0.000000,0.000000,0.000000,0.000000,0.000000,0.000000,0.000000,0.000000,0.586292,-0.586292,0.034302,5,946693330.493041,0.652980,0.514642,-9.829160,-0.182806,-0.178584,-0.004222,0.516068,0.520290,-0.004769,-0.018616,-0.008500,0.804440,0.201330,0.055988,0.015220,0.000000,0.000000,0.000000,0.000000,0.000000,0.000000,0.000000,0.000000,0.000000,0.000000
74,1,0.000000,0.000000,0.000000,0.000000,0.000000,0.000000,0.000000,0.000000,0.000000,0.586292,-0.586292,0.034302,5,946693330.493164,0.652980,0.591282,-9.829160,-0.182806,-0.178457,-0.004349,0.455031,0.459380,-0.004904,0.042421,-0.008500,0.804440,0.203302,0.057768,0.015226,0.000000,0.000000,0.000000,0.000000,0.000000,0.000000,0.000000,0.000000,0.000000,0.000000
75,1,0.000000,0.000000,0.000000,0.000000,0.000000,0.000000,0.000000,0.000000,0.000000,0.586292,-0.586292,0.034302,5,946693330.493286,0.652980,0.591282,-9.829160,-0.243843,-0.239367,-0.004476,0.577105,0.581581,-0.005039,-0.079653,-0.008500,0.804440,0.205287,0.059540,0.015216,0.000000,0.000000,0.000000,0.000000,0.000000,0.000000,0.000000,0.000000,0.000000,0.000000
76,1,0.000000,0.000000,0.000000,0.000000,0.000000,0.000000,0.000000,0.000000,0.000000,0.586292,-0.586292,0.034302,5,946693330.493438,0.652980,0.591282,-9.829160,-0.243843,-0.239239,-0.004604,0.271920,0.276524,-0.005175,-0.018616,-0.008500,0.804440,0.207242,0.061303,0.015213,0.000000,0.000000,0.000000,0.000000,0.000000,0.000000,0.000000,0.000000,0.000000,0.000000
77,1,0.000000,0.000000,0.000000,0.000000,0.000000,0.000000,0.000000,0.000000,0.000000,0.586292,-0.586292,0.034302,5,946693330.497741,0.652980,0.514642,-9.829160,-0.243843,-0.239107,-0.004736,0.393994,0.398730,-0.005336,0.103458,-0.004250,0.804440,0.210892,0.061854,0.015658,0.000000,0.000000,0.000000,0.000000,0.000000,0.000000,0.000000,0.000000,0.000000,0.000000
78,1,0.000000,0.000000,0.000000,0.000000,0.000000,0.000000,0.000000,0.000000,0.000000,-0.747149,0.747149,0.026917,6,946693330.502716,0.652980,0.591282,-9.829160,-0.243843,-0.238927,-0.004916,0.393994,0.398910,-0.005527,0.042421,-0.004250,0.804440,0.214836,0.062510,0.015869,0.000000,0.000000,0.000000,0.000000,0.000000,0.000000,0.000000,0.000000,0.000000,0.000000
79,1,0.000000,0.000000,0.000000,0.000000,0.000000,0.000000,0.000000,0.000000,0.000000,-0.747149,0.747149,0.026917,6,946693330.507659,0.652980,0.514642,-9.829160,-0.243843,-0.238747,-0.005097,0.455031,0.460128,-0.005748,0.042421,-0.004250,0.804440,0.219095,0.062952,0.016079,0.000000,0.000000,0.000000,0.000000,0.000000,0.000000,0.000000,0.000000,0.000000,0.000000
80,1,0.000000,0.000000,0.000000,0.000000,0.000000,0.000000,0.000000,0.000000,0.000000,-0.747149,0.747149,0.026917,6,946693330.512603,0.652980,0.591282,-9.829160,-0.121769,-0.116436,-0.005333,0.332957,0.338290,-0.005998,-0.018616,-0.004250,0.804440,0.222776,0.064270,0.015987,0.000000,0.000000,0.000000,0.000000,0.000000,0.000000,0.000000,0.000000,0.000000,0.000000
81,1,0.000000,0.000000,0.000000,0.000000,0.000000,0.000000,0.000000,0.000000,0.000000,-0.747149,0.747149,0.026917,6,946693330.517761,0.652980,0.591282,-9.829160,-0.121769,-0.116169,-0.005600,0.455031,0.460631,-0.006281,0.042421,-0.004250,0.804440,0.227186,0.065589,0.016206,0.000000,0.000000,0.000000,0.000000,0.000000,0.000000,0.000000,0.000000,0.000000,0.000000
82,1,0.000000,0.000000,0.000000,0.000000,0.000000,0.000000,0.000000,0.000000,0.000000,-0.747149,0.747149,0.026917,6,946693330.522644,0.652980,0.514642,-9.829160,-0.182806,-0.176950,-0.005857,0.516068,0.521925,-0.006593,0.103458,-0.004250,0.804440,0.231792,0.066413,0.016711,0.000000,0.000000,0.000000,0.000000,0.000000,0.000000,0.000000,0.000000,0.000000,0.000000
83,1,0.000000,0.000000,0.000000,0.000000,0.000000,0.000000,0.000000,0.000000,0.000000,-0.701073,0.701073,0.028686,7,946693330.527648,0.652980,0.514642,-9.829160,-0.182806,-0.176667,-0.006139,0.455031,0.461170,-0.006937,0.042421,-0.004250,0.804440,0.236184,0.067238,0.016923,0.000000,0.000000,0.000000,0.000000,0.000000,0.000000,0.000000,0.000000,0.000000,0.000000
84,1,0.000000,0.000000,0.000000,0.000000,0.000000,0.000000,0.000000,0.000000,0.000000,-0.701073,0.701073,0.028686,7,946693330.532623,0.652980,0.591282,-9.829160,-0.243843,-0.237349,-0.006494,0.455031,0.461526,-0.007312,0.103458,-0.004250,0.804440,0.240589,0.068053,0.017438,0.000000,0.000000,0.000000,0.000000,0.000000,0.000000,0.000000,0.000000,0.000000,0.000000
85,1,0.000000,0.000000,0.000000,0.000000,0.000000,0.000000,0.000000,0.000000,0.000000,-0.701073,0.701073,0.028686,7,946693330.537750,0.652980,0.591282,-9.829160,-0.182806,-0.175925,-0.006881,0.455031,0.461912,-0.007719,0.042421,0.000000,0.804440,0.245093,0.069172,0.017655,0.000000,0.000000,0.000000,0.000000,0.000000,0.000000,0.000000,0.000000,0.000000,0.000000
86,1,0.000000,0.000000,0.000000,0.000000,0.000000,0.000000,0.000000,0.000000,0.000000,-0.701073,0.701073,0.028686,7,946693330.542724,0.652980,0.591282,-9.752520,-0.121769,-0.114467,-0.007302,0.516068,0.523370,-0.008163,0.042421,0.000000,0.804440,0.249875,0.070667,0.017866,0.000000,0.000000,0.000000,0.000000,0.000000,0.000000,0.000000,0.000000,0.000000,0.000000
87,1,0.000000,0.000000,0.000000,0.000000,0.000000,0.000000,0.000000,0.000000,0.000000,-0.701073,0.701073,0.028686,7,946693330.547668,0.652980,0.591282,-9.752520,-0.243843,-0.236089,-0.007754,0.577105,0.584859,-0.008638,-0.079653,0.000000,0.804440,0.254971,0.071591,0.017473,0.000000,0.000000,0.000000,0.000000,0.000000,0.000000,0.000000,0.000000,0.000000,0.000000
88,1,0.000000,0.000000,0.000000,0.000000,0.000000,0.000000,0.000000,0.000000,0.000000,-0.701073,0.701073,0.028686,7,946693330.552642,0.652980,0.591282,-9.752520,-0.243843,-0.235606,-0.008237,0.455031,0.463268,-0.009146,0.103458,0.000000,0.804440,0.259506,0.072536,0.017987,0.000000,0.000000,0.000000,0.000000,0.000000,0.000000,0.000000,0.000000,0.000000,0.000000
89,1,0.000000,0.000000,0.000000,0.000000,0.000000,0.000000,0.000000,0.000000,0.000000,-0.701073,0.701073,0.028686,7,946693330.557647,0.652980,0.591282,-9.752520,-0.243843,-0.235091,-0.008752,0.516068,0.524820,-0.009687,0.103458,0.000000,0.804440,0.264389,0.073505,0.018505,0.000000,0.000000,0.000000,0.000000,0.000000,0.000000,0.000000,0.000000,0.000000,0.000000
90,1,0.000000,0.000000,0.000000,0.000000,0.000000,0.000000,0.000000,0.000000,0.000000,0.000000,0.000000,0.034607,8,946693330.562683,0.652980,0.591282,-9.752520,-0.182806,-0.173506,-0.009300,0.516068,0.525368,-0.010262,0.042421,0.000000,0.804440,0.269319,0.074804,0.018719,0.000000,0.000000,0.000000,0.000000,0.000000,0.000000,0.000000,0.000000,0.000000,0.000000
91,1,0.000000,0.000000,0.000000,0.000000,0.000000,0.000000,0.000000,0.000000,0.000000,0.000000,0.000000,0.034607,8,946693330.567657,0.652980,0.591282,-9.752520,-0.182806,-0.172926,-0.009881,0.577105,0.586986,-0.010870,0.103458,0.000000,0.804440,0.274549,0.076144,0.019233,0.000000,0.000000,0.000000,0.000000,0.000000,0.000000,0.000000,0.000000,0.000000,0.000000
92,1,0.000000,0.000000,0.000000,0.000000,0.000000,0.000000,0.000000,0.000000,0.000000,0.000000,0.000000,0.034607,8,946693330.572631,0.652980,0.591282,-9.752520,-0.182806,-0.172312,-0.010494,0.393994,0.404488,-0.011512,-0.140690,0.000000,0.804440,0.278899,0.077514,0.018533,0.000000,0.000000,0.000000,0.000000,0.000000,0.000000,0.000000,0.000000,0.000000,0.000000
93,1,0.000000,0.000000,0.000000,0.000000,0.000000,0.000000,0.000000,0.000000,0.000000,0.000000,0.000000,0.034607,8,946693330.577758,0.652980,0.591282,-9.752520,-0.121769,-0.110628,-0.011141,0.516068,0.527209,-0.012189,-0.018616,0.004250,0.804780,0.283968,0.079204,0.018438,0.000000,0.000000,0.000000,0.000000,0.000000,0.000000,0.000000,0.000000,0.000000,0.000000
94,1,0.000000,0.000000,0.000000,0.000000,0.000000,0.000000,0.000000,0.000000,0.000000,0.000000,0.000000,0.034607,8,946693330.582763,0.652980,0.514642,-9.752520,-0.121769,-0.110037,-0.011732,0.455031,0.466763,-0.012901,0.103458,0.004250,0.804780,0.288698,0.080635,0.018956,0.000000,0.000000,0.000000,0.000000,0.000000,0.000000,0.000000,0.000000,0.000000,0.000000
95,1,0.000000,0.000000,0.000000,0.000000,0.000000,0.000000,0.000000,0.000000,0.000000,0.000000,0.000000,0.034607,8,946693330.587677,0.652980,0.514642,-9.829160,-0.121769,-0.109423,-0.012346,0.577105,0.589451,-0.013640,0.042421,0.004250,0.804780,0.293996,0.082088,0.019164,0.000000,0.000000,0.000000,0.000000,0.000000,0.000000,0.000000,0.000000,0.000000,0.000000
96,1,0.000000,0.000000,0.000000,0.000000,0.000000,0.000000,0.000000,0.000000,0.000000,0.000000,0.000000,0.034607,8,946693330.592651,0.652980,0.591282,-9.829160,-0.304880,-0.291792,-0.013088,0.455031,0.468119,-0.014414,-0.018616,0.004250,0.804780,0.298753,0.082961,0.019072,0.000000,0.000000,0.000000,0.000000,0.000000,0.000000,0.000000,0.000000,0.000000,0.000000
97,1,0.000000,0.000000,0.000000,0.000000,0.000000,0.000000,0.000000,0.000000,0.000000,0.000000,-0.129141,0.031159,9,946693330.597656,0.652980,0.514642,-9.752520,-0.060732,-0.046965,-0.013767,0.516068,0.529835,-0.015229,-0.018616,0.004250,0.804780,0.303883,0.084782,0.018978,0.000000,0.000000,0.000000,0.000000,0.000000,0.000000,0.000000,0.000000,0.000000,0.000000
98,1,0.000000,0.000000,0.000000,0.000000,0.000000,0.000000,0.000000,0.000000,0.000000,0.000000,-0.129141,0.031159,9,946693330.602661,0.652980,0.514642,-9.829160,-0.182806,-0.168336,-0.014471,0.516068,0.530539,-0.016073,-0.018616,0.004250,0.804780,0.309024,0.086006,0.018885,0.000000,0.000000,0.000000,0.000000,0.000000,0.000000,0.000000,0.000000,0.000000,0.000000
99,1,0.000000,0.000000,0.000000,0.000000,0.000000,0.000000,0.000000,0.000000,0.000000,0.000000,-0.129141,0.031159,9,946693330.607666,0.652980,0.514642,-9.829160,-0.121769,-0.106565,-0.015204,0.516068,0.531272,-0.016952,-0.079653,0.004250,0.804780,0.314197,0.087563,0.018487,0.000000,0.000000,0.000000,0.000000,0.000000,0.000000,0.000000,0.000000,0.000000,0.000000
100,1,0.000000,0.000000,0.000000,0.000000,0.000000,0.000000,0.000000,0.000000,0.000000,0.000000,-0.129141,0.031159,9,946693330.612640,0.652980,0.514642,-9.752520,-0.182806,-0.166832,-0.015974,0.516068,0.532042,-0.017874,-0.018616,0.004250,0.804780,0.319409,0.088868,0.018394,0.000000,0.000000,0.000000,0.000000,0.000000,0.000000,0.000000,0.000000,0.000000,0.000000
101,1,0.000000,0.000000,0.000000,0.000000,0.000000,0.000000,0.000000,0.000000,0.000000,0.000000,-0.129196,0.031159,9,946693330.617767,0.652980,0.514642,-9.752520,-0.243843,-0.227067,-0.016776,0.577105,0.593881,-0.018833,-0.018616,0.008500,0.805120,0.325049,0.089864,0.018299,0.000000,0.000000,0.000000,0.000000,0.000000,0.000000,0.000000,0.000000,0.000000,0.000000
102,1,0.000000,0.000000,0.000000,0.000000,0.000000,0.000000,0.000000,0.000000,0.000000,0.000000,-0.129196,0.031159,9,946693330.622741,0.652980,0.514642,-9.752520,-0.182806,-0.165197,-0.017609,0.516068,0.533677,-0.019828,0.164495,0.008500,0.805120,0.330328,0.091230,0.019117,0.000000,0.000000,0.000000,0.000000,0.000000,0.000000,0.000000,0.000000,0.000000,0.000000
103,1,0.000000,0.000000,0.000000,0.000000,0.000000,0.000000,0.000000,0.000000,0.000000,0.000000,0.000000,0.031494,10,946693330.627685,0.652980,0.514642,-9.752520,-0.121769,-0.103296,-0.018473,0.577105,0.595578,-0.020859,-0.018616,0.008500,0.805120,0.335927,0.092933,0.019025,0.000000,0.000000,0.000000,0.000000,0.000000,0.000000,0.000000,0.000000,0.000000,0.000000
104,1,0.000000,0.000000,0.000000,0.000000,0.000000,0.000000,0.000000,0.000000,0.000000,0.000000,0.000000,0.031494,10,946693330.632629,0.652980,0.514642,-9.752520,-0.182806,-0.163438,-0.019368,0.455031,0.474399,-0.021927,0.042421,0.008500,0.805120,0.340956,0.094365,0.019234,0.000000,0.000000,0.000000,0.000000,0.000000,0.000000,0.000000,0.000000,0.000000,0.000000
105,1,0.000000,0.000000,0.000000,0.000000,0.000000,0.000000,0.000000,0.000000,0.000000,0.000000,0.000000,0.031494,10,946693330.637664,0.652980,0.514642,-9.752520,-0.121769,-0.101474,-0.020295,0.516068,0.536363,-0.023031,0.042421,0.008500,0.805120,0.346372,0.096122,0.019448,0.000000,0.000000,0.000000,0.000000,0.000000,0.000000,0.000000,0.000000,0.000000,0.000000
106,1,0.000000,0.000000,0.000000,0.000000,0.000000,0.000000,0.000000,0.000000,0.000000,0.000000,0.000000,0.031494,10,946693330.642669,0.652980,0.514642,-9.752520,-0.182806,-0.161552,-0.021254,0.638142,0.659397,-0.024173,0.042421,0.008500,0.805120,0.352417,0.097608,0.019660,0.000000,0.000000,0.000000,0.000000,0.000000,0.000000,0.000000,0.000000,0.000000,0.000000
107,1,0.000000,0.000000,0.000000,0.000000,0.000000,0.000000,0.000000,0.000000,0.000000,0.000000,0.000000,0.031494,10,946693330.647705,0.652980,0.591282,-9.752520,-0.121769,-0.099370,-0.022399,0.516068,0.538467,-0.025352,0.042421,0.008500,0.805120,0.357904,0.099786,0.019874,0.000000,0.000000,0.000000,0.000000,0.000000,0.000000,0.000000,0.000000,0.000000,0.000000
108,1,0.000000,0.000000,0.000000,0.000000,0.000000,0.000000,0.000000,0.000000,0.000000,0.000000,0.000000,0.031494,10,946693330.652648,0.652980,0.514642,-9.752520,-0.243843,-0.220420,-0.023423,0.577105,0.600528,-0.026568,0.042421,0.008500,0.805120,0.363678,0.101047,0.020084,0.000000,0.000000,0.000000,0.000000,0.000000,0.000000,0.000000,0.000000,0.000000,0.000000
109,1,0.000000,0.000000,0.000000,0.000000,0.000000,0.000000,0.000000,0.000000,0.000000,0.000000,0.000000,0.033111,11,946693330.657806,0.652980,0.514642,-9.752520,-0.182806,-0.158325,-0.024481,0.516068,0.540549,-0.027823,-0.018616,0.004250,0.805120,0.369305,0.102608,0.019988,0.000000,0.000000,0.000000,0.000000,0.000000,0.000000,0.000000,0.000000,0.000000,0.000000
110,1,0.000000,0.000000,0.000000,0.000000,0.000000,0.000000,0.000000,0.000000,0.000000,0.000000,0.000000,0.033111,11,946693330.662750,0.652980,0.591282,-9.752520,-0.121769,-0.096030,-0.025739,0.638142,0.663882,-0.029115,-0.018616,0.004250,0.805120,0.375455,0.104910,0.019896,0.000000,0.000000,0.000000,0.000000,0.000000,0.000000,0.000000,0.000000,0.000000,0.000000
111,1,0.000000,0.000000,0.000000,0.000000,0.000000,0.000000,0.000000,0.000000,0.000000,0.000000,0.000000,0.033111,11,946693330.667694,0.652980,0.591282,-9.752520,-0.243843,-0.216807,-0.027036,0.699179,0.726215,-0.030445,-0.079653,0.004250,0.805120,0.381943,0.106647,0.019502,0.000000,0.000000,0.000000,0.000000,0.000000,0.000000,0.000000,0.000000,0.000000,0.000000
112,1,0.000000,0.000000,0.000000,0.000000,0.000000,0.000000,0.000000,0.000000,0.000000,0.000000,0.000000,0.033111,11,946693330.672668,0.652980,0.591282,-9.752520,-0.182806,-0.154435,-0.028371,0.516068,0.544439,-0.031813,-0.018616,0.004250,0.805120,0.387579,0.108721,0.019409,0.000000,0.000000,0.000000,0.000000,0.000000,0.000000,0.000000,0.000000,0.000000,0.000000
113,1,0.000000,0.000000,0.000000,0.000000,0.000000,0.000000,0.000000,0.000000,0.000000,0.000000,0.000000,0.033111,11,946693330.677673,0.652980,0.591282,-9.829160,-0.121769,-0.092035,-0.029734,0.516068,0.545802,-0.033206,0.042421,0.004250,0.805120,0.393245,0.111112,0.019622,0.000000,0.000000,0.000000,0.000000,0.000000,0.000000,0.000000,0.000000,0.000000,0.000000
114,1,0.000000,0.000000,0.000000,0.000000,0.000000,0.000000,0.000000,0.000000,0.000000,0.000000,0.000000,0.033111,11,946693330.682678,0.652980,0.514642,-9.829160,-0.182806,-0.151858,-0.030948,0.699179,0.730127,-0.034638,0.042421,0.004250,0.805120,0.399865,0.112852,0.019834,0.000000,0.000000,0.000000,0.000000,0.000000,0.000000,0.000000,0.000000,0.000000,0.000000
115,1,0.000000,0.000000,0.000000,0.000000,0.000000,0.000000,0.000000,0.000000,0.000000,0.000000,0.000000,0.033111,11,946693330.687683,0.652980,0.591282,-9.829160,-0.182806,-0.150417,-0.032389,0.577105,0.609494,-0.036108,-0.018616,0.004250,0.805120,0.405912,0.115018,0.019741,0.000000,0.000000,0.000000,0.000000,0.000000,0.000000,0.000000,0.000000,0.000000,0.000000
116,1,0.000000,0.000000,0.000000,0.000000,0.000000,0.000000,0.000000,0.000000,0.000000,0.000000,-0.124327,0.032379,12,946693330.692657,0.652980,0.591282,-9.829160,-0.060732,-0.026864,-0.033868,0.638142,0.672011,-0.037616,-0.018616,0.004250,0.805120,0.412282,0.117836,0.019648,0.000000,0.000000,0.000000,0.000000,0.000000,0.000000,0.000000,0.000000,0.000000,0.000000
117,1,0.000000,0.000000,0.000000,0.000000,0.000000,0.000000,0.000000,0.000000,0.000000,0.000000,-0.124327,0.032379,12,946693330.697784,0.652980,0.591282,-9.829160,-0.060732,-0.025343,-0.035389,0.638142,0.673531,-0.039164,0.042421,0.000000,0.805120,0.418795,0.120693,0.019866,0.000000,0.000000,0.000000,0.000000,0.000000,0.000000,0.000000,0.000000,0.000000,0.000000
118,1,0.000000,0.000000,0.000000,0.000000,0.000000,0.000000,0.000000,0.000000,0.000000,0.000000,-0.124327,0.032379,12,946693330.702758,0.652980,0.591282,-9.829160,-0.182806,-0.145858,-0.036948,0.699179,0.736127,-0.040750,-0.018616,0.000000,0.805120,0.425547,0.122988,0.019773,0.000000,0.000000,0.000000,0.000000,0.000000,0.000000,0.000000,0.000000,0.000000,0.000000
119,1,0.000000,0.000000,0.000000,0.000000,0.000000,0.000000,0.000000,0.000000,0.000000,0.000000,-0.124327,0.032379,12,946693330.707702,0.652980,0.591282,-9.829160,-0.243843,-0.205296,-0.038547,0.516068,0.554615,-0.042374,0.103458,0.000000,0.805120,0.431411,0.125028,0.020284,0.000000,0.000000,0.000000,0.000000,0.000000,0.000000,0.000000,0.000000,0.000000,0.000000
120,1,0.000000,0.000000,0.000000,0.000000,0.000000,0.000000,0.000000,0.000000,0.000000,0.000000,-0.124327,0.032379,12,946693330.712677,0.652980,0.591282,-9.829160,-0.121769,-0.081583,-0.040186,0.638142,0.678329,-0.044037,0.042421,0.000000,0.805120,0.437938,0.127711,0.020496,0.000000,0.000000,0.000000,0.000000,0.000000,0.000000,0.000000,0.000000,0.000000,0.000000
121,1,0.000000,0.000000,0.000000,0.000000,0.000000,0.000000,0.000000,0.000000,0.000000,0.000000,-0.124327,0.032379,12,946693330.717681,0.652980,0.591282,-9.829160,-0.121769,-0.079903,-0.041866,0.699179,0.741045,-0.045738,0.042421,0.000000,0.805120,0.444831,0.130436,0.020708,0.000000,0.000000,0.000000,0.000000,0.000000,0.000000,0.000000,0.000000,0.000000,0.000000
122,1,0.000000,0.000000,0.000000,0.000000,0.000000,0.000000,0.000000,0.000000,0.000000,0.000000,0.000000,0.031495,13,946693330.722717,0.652980,0.514642,-9.829160,-0.182806,-0.139451,-0.043355,0.699179,0.742534,-0.047479,0.042421,0.000000,0.805120,0.451789,0.132468,0.020921,0.000000,0.000000,0.000000,0.000000,0.000000,0.000000,0.000000,0.000000,0.000000,0.000000
123,1,0.000000,0.000000,0.000000,0.000000,0.000000,0.000000,0.000000,0.000000,0.000000,0.000000,0.000000,0.031495,13,946693330.727691,0.652980,0.514642,-9.829160,-0.121769,-0.076890,-0.044879,0.577105,0.621984,-0.049259,0.042421,0.000000,0.805120,0.458133,0.134851,0.021132,0.000000,0.000000,0.000000,0.000000,0.000000,0.000000,0.000000,0.000000,0.000000,0.000000
124,1,0.000000,0.000000,0.000000,0.000000,0.000000,0.000000,0.000000,0.000000,0.000000,0.000000,0.000000,0.031495,13,946693330.732666,0.652980,0.514642,-9.829160,-0.121769,-0.075331,-0.046438,0.577105,0.623544,-0.051078,-0.018616,0.000000,0.805120,0.464520,0.137272,0.021040,0.000000,0.000000,0.000000,0.000000,0.000000,0.000000,0.000000,0.000000,0.000000,0.000000
125,1,0.000000,0.000000,0.000000,0.000000,0.000000,0.000000,0.000000,0.000000,0.000000,0.000000,0.000000,0.031495,13,946693330.737792,0.652980,0.514642,-9.829160,-0.182806,-0.134772,-0.048035,0.577105,0.625140,-0.052938,-0.018616,-0.008500,0.804440,0.471044,0.139409,0.020944,0.000000,0.000000,0.000000,0.000000,0.000000,0.000000,0.000000,0.000000,0.000000,0.000000
126,1,0.000000,0.000000,0.000000,0.000000,0.000000,0.000000,0.000000,0.000000,0.000000,0.000000,0.000000,0.031495,13,946693330.742767,0.652980,0.514642,-9.829160,-0.243843,-0.194177,-0.049667,0.760216,0.809883,-0.054836,-0.079653,-0.008500,0.804440,0.478425,0.141302,0.020548,0.000000,0.000000,0.000000,0.000000,0.000000,0.000000,0.000000,0.000000,0.000000,0.000000
127,1,0.000000,0.000000,0.000000,0.000000,0.000000,0.000000,0.000000,0.000000,0.000000,0.000000,0.000000,0.031495,13,946693330.747741,0.652980,0.514642,-9.829160,-0.182806,-0.131472,-0.051334,0.760216,0.811551,-0.056774,-0.079653,-0.008500,0.804440,0.485847,0.143539,0.020152,0.000000,0.000000,0.000000,0.000000,0.000000,0.000000,0.000000,0.000000,0.000000,0.000000
128,1,0.000000,0.000000,0.000000,0.000000,0.000000,0.000000,0.000000,0.000000,0.000000,0.000000,0.000000,0.031495,13,946693330.752685,0.652980,0.591282,-9.829160,-0.182806,-0.129502,-0.053304,0.699179,0.752483,-0.058750,0.042421,-0.008500,0.804440,0.492985,0.146277,0.020362,0.000000,0.000000,0.000000,0.000000,0.000000,0.000000,0.000000,0.000000,0.000000,0.000000
129,1,0.000000,0.000000,0.000000,0.000000,0.000000,0.000000,0.000000,0.000000,0.000000,0.000000,0.000000,0.033020,14,946693330.757690,0.652980,0.591282,-9.829160,-0.182806,-0.127490,-0.055316,0.699179,0.754495,-0.060766,-0.079653,-0.008500,0.804440,0.500211,0.149054,0.019963,0.000000,0.000000,0.000000,0.000000,0.000000,0.000000,0.000000,0.000000,0.000000,0.000000
130,1,0.000000,0.000000,0.000000,0.000000,0.000000,0.000000,0.000000,0.000000,0.000000,0.000000,0.000000,0.033020,14,946693330.762695,0.652980,0.591282,-9.829160,-0.182806,-0.125436,-0.057370,0.638142,0.695512,-0.062822,-0.018616,-0.008500,0.804440,0.507175,0.151879,0.019870,0.000000,0.000000,0.000000,0.000000,0.000000,0.000000,0.000000,0.000000,0.000000,0.000000
131,1,0.000000,0.000000,0.000000,0.000000,0.000000,0.000000,0.000000,0.000000,0.000000,0.000000,0.000000,0.033020,14,946693330.767700,0.652980,0.591282,-9.752520,-0.121769,-0.062286,-0.059483,0.638142,0.697625,-0.064936,0.042421,-0.008500,0.804440,0.514214,0.155086,0.020082,0.000000,0.000000,0.000000,0.000000,0.000000,0.000000,0.000000,0.000000,0.000000,0.000000
132,1,0.000000,0.000000,0.000000,0.000000,0.000000,0.000000,0.000000,0.000000,0.000000,0.000000,0.000000,0.033020,14,946693330.772674,0.652980,0.591282,-9.752520,-0.243843,-0.182204,-0.061639,0.699179,0.760818,-0.067091,-0.018616,-0.008500,0.804440,0.521579,0.157736,0.019990,0.000000,0.000000,0.000000,0.000000,0.000000,0.000000,0.000000,0.000000,0.000000,0.000000
133,1,0.000000,0.000000,0.000000,0.000000,0.000000,0.000000,0.000000,0.000000,0.000000,0.000000,0.000000,0.033020,14,946693330.777832,0.652980,0.591282,-9.752520,-0.121769,-0.057929,-0.063840,0.638142,0.701982,-0.069287,-0.018616,-0.008500,0.804440,0.528816,0.161033,0.019893,0.000000,0.000000,0.000000,0.000000,0.000000,0.000000,0.000000,0.000000,0.000000,0.000000
134,1,0.000000,0.000000,0.000000,0.000000,0.000000,0.000000,0.000000,0.000000,0.000000,0.000000,0.000000,0.033020,14,946693330.782806,0.652980,0.591282,-9.752520,-0.243843,-0.177759,-0.066084,0.699179,0.765263,-0.071523,-0.079653,-0.008500,0.804440,0.536271,0.163783,0.019497,0.000000,0.000000,0.000000,0.000000,0.000000,0.000000,0.000000,0.000000,0.000000,0.000000
135,1,0.000000,0.000000,0.000000,0.000000,0.000000,0.000000,0.000000,0.000000,0.000000,0.000000,0.000000,0.032318,15,946693330.787750,0.652980,0.591282,-9.752520,-0.243843,-0.175472,-0.068371,0.638142,0.706513,-0.073799,0.042421,-0.008500,0.804440,0.543447,0.166589,0.019707,0.000000,0.000000,0.000000,0.000000,0.000000,0.000000,0.000000,0.000000,0.000000,0.000000
136,1,0.000000,0.000000,0.000000,0.000000,0.000000,0.000000,0.000000,0.000000,0.000000,0.000000,0.000000,0.032318,15,946693330.792694,0.652980,0.591282,-9.752520,-0.243843,-0.173142,-0.070701,0.577105,0.647806,-0.076115,-0.018616,-0.008500,0.804440,0.550365,0.169444,0.019615,0.000000,0.000000,0.000000,0.000000,0.000000,0.000000,0.000000,0.000000,0.000000,0.000000
137,1,0.000000,0.000000,0.000000,0.000000,0.000000,0.000000,0.000000,0.000000,0.000000,0.000000,0.000000,0.032318,15,946693330.797698,0.652980,0.591282,-9.829160,-0.121769,-0.048714,-0.073055,0.638142,0.711197,-0.078450,-0.079653,-0.008500,0.804440,0.557641,0.172920,0.019216,0.000000,0.000000,0.000000,0.000000,0.000000,0.000000,0.000000,0.000000,0.000000,0.000000
138,1,0.000000,0.000000,0.000000,0.000000,0.000000,0.000000,0.000000,0.000000,0.000000,0.000000,0.000000,0.032318,15,946693330.802734,0.652980,0.591282,-9.829160,-0.243843,-0.168389,-0.075454,0.760216,0.835670,-0.080826,-0.079653,-0.008500,0.804440,0.565599,0.175831,0.018815,0.000000,0.000000,0.000000,0.000000,0.000000,0.000000,0.000000,0.000000,0.000000,0.000000
139,1,0.000000,0.000000,0.000000,0.000000,0.000000,0.000000,0.000000,0.000000,0.000000,0.000000,0.000000,0.032318,15,946693330.807708,0.652980,0.591282,-9.829160,-0.121769,-0.043874,-0.077895,0.638142,0.716037,-0.083241,-0.018616,-0.008500,0.804440,0.572944,0.179411,0.018723,0.000000,0.000000,0.000000,0.000000,0.000000,0.000000,0.000000,0.000000,0.000000,0.000000
140,1,0.000000,0.000000,0.000000,0.000000,0.000000,0.000000,0.000000,0.000000,0.000000,0.000000,0.000000,0.032318,15,946693330.812683,0.652980,0.591282,-9.829160,-0.182806,-0.102426,-0.080380,0.638142,0.718522,-0.085696,0.042421,-0.008500,0.804440,0.580336,0.182739,0.018934,0.000000,0.000000,0.000000,0.000000,0.000000,0.000000,0.000000,0.000000,0.000000,0.000000
141,1,0.000000,0.000000,0.000000,0.000000,0.000000,0.000000,0.000000,0.000000,0.000000,0.000000,0.000000,0.032318,15,946693330.817810,0.652980,0.591282,-9.829160,-0.121769,-0.038859,-0.082910,0.577105,0.660015,-0.088192,0.103458,-0.004250,0.804100,0.587574,0.186417,0.019464,0.000000,0.000000,0.000000,0.000000,0.000000,0.000000,0.000000,0.000000,0.000000,0.000000
142,1,0.000000,0.000000,0.000000,0.000000,0.000000,0.000000,0.000000,0.000000,0.000000,0.602124,-0.602124,0.033386,16,946693330.822814,0.652980,0.591282,-9.829160,-0.121769,-0.036285,-0.085484,0.699179,0.784663,-0.090729,-0.018616,-0.004250,0.804100,0.595387,0.190153,0.019371,0.000000,0.000000,0.000000,0.000000,0.000000,0.000000,0.000000,0.000000,0.000000,0.000000
143,1,0.000000,0.000000,0.000000,0.000000,0.000000,0.000000,0.000000,0.000000,0.000000,0.602124,-0.602124,0.033386,16,946693330.827758,0.652980,0.591282,-9.829160,-0.121769,-0.033668,-0.088101,0.821253,0.909354,-0.093304,0.103458,-0.004250,0.804100,0.603802,0.193943,0.019882,0.000000,0.000000,0.000000,0.000000,0.000000,0.000000,0.000000,0.000000,0.000000,0.000000
144,1,0.000000,0.000000,0.000000,0.000000,0.000000,0.000000,0.000000,0.000000,0.000000,0.602124,-0.602124,0.033386,16,946693330.832702,0.652980,0.591282,-9.829160,-0.243843,-0.153082,-0.090761,0.699179,0.789941,-0.095919,0.042421,-0.004250,0.804100,0.611661,0.197183,0.020092,0.000000,0.000000,0.000000,0.000000,0.000000,0.000000,0.000000,0.000000,0.000000,0.000000
145,1,0.000000,0.000000,0.000000,0.000000,0.000000,0.000000,0.000000,0.000000,0.000000,0.602124,-0.602124,0.033386,16,946693330.837707,0.652980,0.591282,-9.829160,-0.182806,-0.089339,-0.093467,0.760216,0.853683,-0.098573,0.042421,-0.004250,0.804100,0.619920,0.200773,0.020305,0.000000,0.000000,0.000000,0.000000,0.000000,0.000000,0.000000,0.000000,0.000000,0.000000
146,1,0.000000,0.000000,0.000000,0.000000,0.000000,0.000000,0.000000,0.000000,0.000000,0.602124,-0.602124,0.033386,16,946693330.842742,0.729620,0.591282,-9.829160,-0.243843,-0.147626,-0.096217,0.577105,0.673322,-0.101645,0.042421,-0.004250,0.804100,0.627893,0.204108,0.020518,0.000000,0.000000,0.000000,0.000000,0.000000,0.000000,0.000000,0.000000,0.000000,0.000000
147,1,0.000000,0.000000,0.000000,0.000000,0.000000,0.000000,0.000000,0.000000,0.000000,0.602124,-0.602124,0.033386,16,946693330.847717,0.652980,0.591282,-9.829160,-0.182806,-0.083795,-0.099011,0.638142,0.737153,-0.104379,-0.018616,-0.004250,0.804100,0.635617,0.207810,0.020425,0.000000,0.000000,0.000000,0.000000,0.000000,0.000000,0.000000,0.000000,0.000000,0.000000
148,1,0.000000,0.000000,0.000000,0.000000,0.000000,0.000000,0.000000,0.000000,0.000000,0.000000,0.000000,0.030792,17,946693330.852722,0.652980,0.591282,-9.829160,-0.243843,-0.141992,-0.101851,0.699179,0.801030,-0.107153,-0.018616,-0.004250,0.804100,0.643718,0.211259,0.020332,0.000000,0.000000,0.000000,0.000000,0.000000,0.000000,0.000000,0.000000,0.000000,0.000000
149,1,0.000000,0.000000,0.000000,0.000000,0.000000,0.000000,0.000000,0.000000,0.000000,0.000000,0.000000,0.030792,17,946693330.857849,0.652980,0.591282,-9.829160,-0.304880,-0.200144,-0.104737,0.821253,0.925990,-0.109968,0.042421,-0.004253,0.804100,0.652591,0.214436,0.020550,0.000000,0.000000,0.000000,0.000000,0.000000,0.000000,0.000000,0.000000,0.000000,0.000000
150,1,0.000000,0.000000,0.000000,0.000000,0.000000,0.000000,0.000000,0.000000,0.000000,0.000000,0.000000,0.030792,17,946693330.862792,0.652980,0.514642,-9.829160,-0.121769,-0.014507,-0.107262,0.760216,0.867478,-0.112821,-0.018616,-0.004253,0.804100,0.661040,0.218023,0.020458,0.000000,0.000000,0.000000,0.000000,0.000000,0.000000,0.000000,0.000000,0.000000,0.000000
151,1,0.000000,0.000000,0.000000,0.000000,0.000000,0.000000,0.000000,0.000000,0.000000,0.000000,0.000000,0.030792,17,946693330.867767,0.729620,0.514642,-9.829160,-0.182806,-0.072980,-0.109826,0.821253,0.931079,-0.116123,-0.018616,-0.004253,0.804100,0.670461,0.221355,0.020365,0.000000,0.000000,0.000000,0.000000,0.000000,0.000000,0.000000,0.000000,0.000000,0.000000
152,1,0.000000,0.000000,0.000000,0.000000,0.000000,0.000000,0.000000,0.000000,0.000000,0.000000,0.000000,0.030792,17,946693330.872711,0.652980,0.514642,-9.829160,-0.243843,-0.131415,-0.112429,0.577105,0.689534,-0.119054,-0.018616,-0.004253,0.804100,0.678104,0.224435,0.020273,0.000000,0.000000,0.000000,0.000000,0.000000,0.000000,0.000000,0.000000,0.000000,0.000000
153,1,0.000000,0.000000,0.000000,0.000000,0.000000,0.000000,0.000000,0.000000,0.000000,0.000000,0.000000,0.030792,17,946693330.877716,0.652980,0.591282,-9.829160,-0.243843,-0.128349,-0.115494,0.821253,0.936748,-0.122024,0.042421,-0.004253,0.804100,0.687059,0.228164,0.020485,0.000000,0.000000,0.000000,0.000000,0.000000,0.000000,0.000000,0.000000,0.000000,0.000000
154,1,0.000000,0.000000,0.000000,0.000000,0.000000,0.000000,0.000000,0.000000,0.000000,0.000000,0.000000,0.030792,17,946693330.882751,0.652980,0.591282,-9.829160,-0.243843,-0.125237,-0.118606,0.699179,0.817785,-0.125033,0.042421,-0.004253,0.804100,0.695479,0.231948,0.020699,0.000000,0.000000,0.000000,0.000000,0.000000,0.000000,0.000000,0.000000,0.000000,0.000000
155,1,0.000000,0.000000,0.000000,0.000000,0.000000,0.000000,0.000000,0.000000,0.000000,0.000000,0.000000,0.032440,18,946693330.887725,0.652980,0.591282,-9.905801,-0.182806,-0.061070,-0.121736,0.638142,0.759878,-0.128053,-0.018616,-0.004253,0.804100,0.703554,0.236064,0.020606,0.000000,0.000000,0.000000,0.000000,0.000000,0.000000,0.000000,0.000000,0.000000,0.000000
156,1,0.000000,0.000000,0.000000,0.000000,0.000000,0.000000,0.000000,0.000000,0.000000,0.000000,0.000000,0.032440,18,946693330.892700,0.652980,0.591282,-9.905801,-0.121769,0.003141,-0.124910,0.638142,0.763052,-0.131111,0.042421,-0.004253,0.804100,0.711679,0.240540,0.020817,0.000000,0.000000,0.000000,0.000000,0.000000,0.000000,0.000000,0.000000,0.000000,0.000000
157,1,0.000000,0.000000,0.000000,0.000000,0.000000,0.000000,0.000000,0.000000,0.000000,0.000000,0.000000,0.032440,18,946693330.897827,0.652980,0.591282,-9.905801,-0.243843,-0.115713,-0.128130,0.638142,0.766273,-0.134210,0.042421,0.000000,0.804100,0.719973,0.244452,0.021035,0.000000,0.000000,0.000000,0.000000,0.000000,0.000000,0.000000,0.000000,0.000000,0.000000
158,1,0.000000,0.000000,0.000000,0.000000,0.000000,0.000000,0.000000,0.000000,0.000000,0.000000,0.000000,0.032440,18,946693330.902832,0.652980,0.591282,-9.905801,-0.243843,-0.112447,-0.131396,0.699179,0.830575,-0.137347,-0.018616,0.000000,0.804100,0.728528,0.248436,0.020942,0.000000,0.000000,0.000000,0.000000,0.000000,0.000000,0.000000,0.000000,0.000000,0.000000
159,1,0.000000,0.000000,0.000000,0.000000,0.000000,0.000000,0.000000,0.000000,0.000000,0.000000,0.000000,0.032440,18,946693330.907806,0.652980,0.591282,-9.829160,-0.243843,-0.109109,-0.134734,0.821253,0.955988,-0.140552,-0.018616,0.000000,0.804100,0.737757,0.252522,0.020849,0.000000,0.000000,0.000000,0.000000,0.000000,0.000000,0.000000,0.000000,0.000000,0.000000
160,1,0.000000,0.000000,0.000000,0.000000,0.000000,0.000000,0.000000,0.000000,0.000000,0.000000,0.000000,0.032440,18,946693330.912719,0.652980,0.514642,-9.829160,-0.304880,-0.167235,-0.137645,0.760216,0.897861,-0.143795,0.042421,0.000000,0.804100,0.746676,0.255721,0.021058,0.000000,0.000000,0.000000,0.000000,0.000000,0.000000,0.000000,0.000000,0.000000,0.000000
161,1,0.000000,0.000000,0.000000,0.000000,0.000000,0.000000,0.000000,0.000000,0.000000,0.000000,0.000000,0.032349,19,946693330.917724,0.652980,0.591282,-9.829160,-0.243843,-0.102769,-0.141074,0.760216,0.901291,-0.147076,0.103458,0.000000,0.804100,0.755729,0.259922,0.021575,0.000000,0.000000,0.000000,0.000000,0.000000,0.000000,0.000000,0.000000,0.000000,0.000000
162,1,0.000000,0.000000,0.000000,0.000000,0.000000,0.000000,0.000000,0.000000,0.000000,0.000000,0.000000,0.032349,19,946693330.922760,0.652980,0.514642,-9.829160,-0.243843,-0.099780,-0.144063,0.638142,0.782206,-0.150396,0.042421,0.000000,0.804100,0.764248,0.263514,0.021789,0.000000,0.000000,0.000000,0.000000,0.000000,0.000000,0.000000,0.000000,0.000000,0.000000
