nr,time,flyState,ax,ay,az,gx,gy,gz,height_speed,set_h,height,throttle,set_pitch,pitch,set_roll,roll,set_yaw,yaw,motval_0,motval_1, motval_2,motval_3,hor_xv,hor_yv, hor_dt,hor_seqNum,xPos,yPos,targetXVel,targetYVel,targetPitch, targetRoll, adj_pitch, adj_roll, adj_yaw, adj_h
1,946684902.076232,0,0.000000,0.000000,0.000000,0.000000,0.000000,0.000000,0.000000,0.000000,0.000000,0.000000,0.000000,0.000000,0.000000,0.000000,0.000000,0.000000,0.000000,0.000000,0.000000,0.000000,0.000000,0.000000,0.000000,0,0.000000,0.000000,0.000000,0.000000,0.000000,0.000000,0.000000,0.000000,0.000000,0.000000
2,946684902.445251,1,0.018393,0.017628,-9.803100,0.122074,-0.047609,0.019532,0.000000,0.000000,0.299540,0.000000,0.000000,0.005029,0.000000,0.000181,0.000000,-0.015281,0.000000,0.000000,0.000000,0.000000,0.245138,0.000000,0.030548,5,0.000000,0.000000,0.000000,0.000000,0.000000,0.000000,0.000000,0.000000,0.000000,0.000000
3,946684902.445983,1,0.018393,0.017628,-9.803100,-0.061037,-0.047609,0.019532,0.000000,0.000000,0.299540,0.000000,0.000000,0.005049,0.000000,0.000191,0.000000,-0.015267,0.000000,0.000000,0.000000,0.000000,0.245138,0.000000,0.030548,5,0.000000,0.000000,0.000000,0.000000,0.000000,0.000000,0.000000,0.000000,0.000000,0.000000
4,946684902.450500,1,0.018393,0.017628,-9.803100,0.061037,-0.047609,-0.041505,3.744250,0.000000,0.299540,0.000000,0.000000,0.004890,0.000000,0.000522,0.000000,-0.015454,0.000000,0.000000,0.000000,0.000000,0.245138,0.000000,0.030548,5,0.000000,0.000000,0.000000,0.000000,0.000000,0.000000,0.000000,0.000000,0.000000,0.000000
5,946684902.450897,1,0.018393,0.017628,-9.803100,0.061037,0.074465,-0.041505,3.744250,0.000000,0.299540,0.000000,0.000000,0.004975,0.000000,0.000602,0.000000,-0.015470,0.000000,0.000000,0.000000,0.000000,0.245138,0.000000,0.030548,5,0.000000,0.000000,0.000000,0.000000,0.000000,0.000000,0.000000,0.000000,0.000000,0.000000
6,946684902.451171,1,0.018393,-0.059012,-9.803100,0.000000,0.013428,-0.041505,3.744250,0.000000,0.299540,0.000000,0.000000,0.005034,0.000000,0.000415,0.000000,-0.015482,0.000000,0.000000,0.000000,0.000000,0.245138,0.000000,0.030548,5,0.000000,0.000000,0.000000,0.000000,0.000000,0.000000,0.000000,0.000000,0.000000,0.000000
7,946684902.451416,1,0.018393,0.017628,-9.803100,0.122074,0.074465,0.019532,3.744250,0.000000,0.299540,0.000000,0.000000,0.005108,0.000000,0.000500,0.000000,-0.015477,0.000000,0.000000,0.000000,0.000000,0.245138,0.000000,0.030548,5,0.000000,0.000000,0.000000,0.000000,0.000000,0.000000,0.000000,0.000000,0.000000,0.000000
8,946684902.451660,1,-0.058248,0.017628,-9.803100,0.061037,0.074465,0.019532,3.744250,0.000000,0.299540,0.000000,0.000000,0.004939,0.000000,0.000571,0.000000,-0.015472,0.000000,0.000000,0.000000,0.000000,0.245138,0.000000,0.030548,5,0.000000,0.000000,0.000000,0.000000,0.000000,0.000000,0.000000,0.000000,0.000000,0.000000
9,946684902.451904,1,-0.058248,0.017628,-9.803100,0.000000,0.013428,0.080569,3.744250,0.000000,0.299540,0.000000,0.000000,0.004755,0.000000,0.000626,0.000000,-0.015453,0.000000,0.000000,0.000000,0.000000,0.245138,0.000000,0.030548,5,0.000000,0.000000,0.000000,0.000000,0.000000,0.000000,0.000000,0.000000,0.000000,0.000000
10,946684902.452178,1,-0.058248,-0.059012,-9.803100,-0.122074,0.013428,-0.041505,3.744250,0.000000,0.299540,0.000000,0.000000,0.004572,0.000000,0.000406,0.000000,-0.015464,0.000000,0.000000,0.000000,0.000000,0.245138,0.000000,0.030548,5,0.000000,0.000000,0.000000,0.000000,0.000000,0.000000,0.000000,0.000000,0.000000,0.000000
11,946684902.452545,1,-0.058248,-0.059012,-9.803100,0.000000,-0.108646,-0.041505,3.744250,0.000000,0.299540,0.000000,0.000000,0.004345,0.000000,0.000218,0.000000,-0.015479,0.000000,0.000000,0.000000,0.000000,0.245138,0.000000,0.030548,5,0.000000,0.000000,0.000000,0.000000,0.000000,0.000000,0.000000,0.000000,0.000000,0.000000
12,946684902.452758,1,-0.058248,-0.059012,-9.803100,0.000000,-0.047609,0.019532,3.744250,0.000000,0.299540,0.000000,0.000000,0.004148,0.000000,0.000031,0.000000,-0.015475,0.000000,0.000000,0.000000,0.000000,0.245138,0.000000,0.030548,5,0.000000,0.000000,0.000000,0.000000,0.000000,0.000000,0.000000,0.000000,0.000000,0.000000
13,946684902.452972,1,-0.058248,0.017628,-9.803100,0.000000,-0.047609,0.019532,3.744250,0.000000,0.299540,0.000000,0.000000,0.003951,0.000000,0.000087,0.000000,-0.015471,0.000000,0.000000,0.000000,0.000000,0.245138,0.000000,0.030548,5,0.000000,0.000000,0.000000,0.000000,0.000000,0.000000,0.000000,0.000000,0.000000,0.000000
14,946684902.453186,1,-0.058248,0.017628,-9.803100,-0.061037,0.013428,0.141606,3.744250,0.000000,0.299540,0.000000,0.000000,0.003767,0.000000,0.000130,0.000000,-0.015441,0.000000,0.000000,0.000000,0.000000,0.245138,0.000000,0.030548,5,0.000000,0.000000,0.000000,0.000000,0.000000,0.000000,0.000000,0.000000,0.000000,0.000000
15,946684902.453369,1,-0.058248,0.017628,-9.803100,0.000000,0.196539,0.019532,3.744250,0.000000,0.299540,0.000000,0.000000,0.003616,0.000000,0.000186,0.000000,-0.015437,0.000000,0.000000,0.000000,0.000000,0.245138,0.000000,0.030548,5,0.000000,0.000000,0.000000,0.000000,0.000000,0.000000,0.000000,0.000000,0.000000,0.000000
16,946684902.453582,1,-0.058248,0.017628,-9.803100,0.061037,-0.047609,0.080569,3.744250,0.000000,0.299540,0.000000,0.000000,0.003419,0.000000,0.000254,0.000000,-0.015420,0.000000,0.000000,0.000000,0.000000,0.245138,0.000000,0.030548,5,0.000000,0.000000,0.000000,0.000000,0.000000,0.000000,0.000000,0.000000,0.000000,0.000000
17,946684902.453796,1,-0.058248,0.017628,-9.803100,0.061037,-0.108646,-0.102542,3.744250,0.000000,0.299540,0.000000,0.000000,0.003209,0.000000,0.000323,0.000000,-0.015442,0.000000,0.000000,0.000000,0.000000,0.245138,0.000000,0.030548,5,0.000000,0.000000,0.000000,0.000000,0.000000,0.000000,0.000000,0.000000,0.000000,0.000000
18,946684902.454315,1,-0.058248,0.017628,-9.803100,-0.061037,-0.108646,0.019532,3.744250,0.000000,0.299540,0.000000,0.000000,0.002967,0.000000,0.000347,0.000000,-0.015432,0.000000,0.000000,0.000000,0.000000,0.245138,0.000000,0.030548,5,0.000000,0.000000,0.000000,0.000000,0.000000,0.000000,0.000000,0.000000,0.000000,0.000000
19,946684902.455932,1,-0.058248,0.017628,-9.803100,-0.061037,0.196539,-0.041505,3.744250,0.000000,0.299540,0.000000,0.000000,0.003097,0.000000,0.000305,0.000000,-0.015499,0.000000,0.000000,0.000000,0.000000,0.245138,0.000000,0.030548,5,0.000000,0.000000,0.000000,0.000000,0.000000,0.000000,0.000000,0.000000,0.000000,0.000000
20,946684902.456146,1,-0.058248,0.017628,-9.803100,-0.061037,0.074465,0.080569,0.000000,0.000000,0.299540,0.000000,0.000000,0.002926,0.000000,0.000348,0.000000,-0.015482,0.000000,0.000000,0.000000,0.000000,0.245138,0.000000,0.030548,5,0.000000,0.000000,0.000000,0.000000,0.000000,0.000000,0.000000,0.000000,0.000000,0.000000
21,946684902.456390,1,-0.058248,0.017628,-9.803100,-0.061037,0.074465,-0.163579,0.000000,0.000000,0.299540,0.000000,0.000000,0.002757,0.000000,0.000389,0.000000,-0.015521,0.000000,0.000000,0.000000,0.000000,0.245138,0.000000,0.030548,5,0.000000,0.000000,0.000000,0.000000,0.000000,0.000000,0.000000,0.000000,0.000000,0.000000
22,946684902.456726,1,-0.058248,0.017628,-9.803100,0.000000,-0.047609,0.080569,0.000000,0.000000,0.299540,0.000000,0.000000,0.002554,0.000000,0.000445,0.000000,-0.015494,0.000000,0.000000,0.000000,0.000000,0.245138,0.000000,0.030548,5,0.000000,0.000000,0.000000,0.000000,0.000000,0.000000,0.000000,0.000000,0.000000,0.000000
23,946684902.458221,1,-0.058248,0.017628,-9.803100,0.000000,0.013428,0.080569,0.000000,0.000000,0.299540,0.000000,0.000000,0.002386,0.000000,0.000501,0.000000,-0.015374,0.000000,0.000000,0.000000,0.000000,0.245138,0.000000,0.030548,5,0.000000,0.000000,0.000000,0.000000,0.000000,0.000000,0.000000,0.000000,0.000000,0.000000
24,946684902.458465,1,-0.058248,0.017628,-9.879741,0.061037,0.074465,0.080569,0.000000,0.000000,0.299540,0.000000,0.000000,0.002218,0.000000,0.000571,0.000000,-0.015354,0.000000,0.000000,0.000000,0.000000,0.245138,0.000000,0.030548,5,0.000000,0.000000,0.000000,0.000000,0.000000,0.000000,0.000000,0.000000,0.000000,0.000000
25,946684902.458679,1,-0.058248,0.017628,-9.803100,0.000000,0.074465,0.141606,0.000000,0.000000,0.299540,0.000000,0.000000,0.002046,0.000000,0.000627,0.000000,-0.015324,0.000000,0.000000,0.000000,0.000000,0.245138,0.000000,0.030548,5,0.000000,0.000000,0.000000,0.000000,0.000000,0.000000,0.000000,0.000000,0.000000,0.000000
26,946684902.458892,1,-0.058248,0.017628,-9.803100,-0.061037,-0.047609,0.080569,0.000000,0.000000,0.299540,0.000000,0.000000,0.001849,0.000000,0.000670,0.000000,-0.015307,0.000000,0.000000,0.000000,0.000000,0.245138,0.000000,0.030548,5,0.000000,0.000000,0.000000,0.000000,0.000000,0.000000,0.000000,0.000000,0.000000,0.000000
27,946684902.459106,1,-0.058248,0.017628,-9.803100,0.122074,0.013428,0.080569,0.000000,0.000000,0.299540,0.000000,0.000000,0.001664,0.000000,0.000753,0.000000,-0.015290,0.000000,0.000000,0.000000,0.000000,0.245138,0.000000,0.030548,5,0.000000,0.000000,0.000000,0.000000,0.000000,0.000000,0.000000,0.000000,0.000000,0.000000
28,946684902.460906,1,-0.058248,0.017628,-9.803100,0.000000,-0.047609,0.019532,-0.004250,0.000000,0.299200,0.000000,0.000000,0.001390,0.000000,0.000809,0.000000,-0.015254,0.000000,0.000000,0.000000,0.000000,0.244860,0.000000,0.030548,5,0.000000,0.000000,0.000000,0.000000,0.000000,0.000000,0.000000,0.000000,0.000000,0.000000
29,946684902.461212,1,-0.058248,0.017628,-9.803100,0.000000,0.135502,-0.041505,-0.004250,0.000000,0.299200,0.000000,0.000000,0.001244,0.000000,0.000865,0.000000,-0.015267,0.000000,0.000000,0.000000,0.000000,0.244860,0.000000,0.030548,5,0.000000,0.000000,0.000000,0.000000,0.000000,0.000000,0.000000,0.000000,0.000000,0.000000
30,946684902.461425,1,0.018393,0.017628,-9.803100,-0.061037,0.013428,-0.041505,-0.004250,0.000000,0.299200,0.000000,0.000000,0.001305,0.000000,0.000908,0.000000,-0.015276,0.000000,0.000000,0.000000,0.000000,0.244860,0.000000,0.030548,5,0.000000,0.000000,0.000000,0.000000,0.000000,0.000000,0.000000,0.000000,0.000000,0.000000
31,946684902.461669,1,0.018393,0.017628,-9.803100,0.061037,0.074465,0.141606,-0.004250,0.000000,0.299200,0.000000,0.000000,0.001382,0.000000,0.000979,0.000000,-0.015241,0.000000,0.000000,0.000000,0.000000,0.244860,0.000000,0.030548,5,0.000000,0.000000,0.000000,0.000000,0.000000,0.000000,0.000000,0.000000,0.000000,0.000000
32,946684902.461883,1,0.018393,0.017628,-9.803100,0.000000,-0.047609,0.019532,-0.004250,0.000000,0.299200,0.000000,0.000000,0.001430,0.000000,0.001035,0.000000,-0.015237,0.000000,0.000000,0.000000,0.000000,0.244860,0.000000,0.030548,5,0.000000,0.000000,0.000000,0.000000,0.000000,0.000000,0.000000,0.000000,0.000000,0.000000
33,946684902.462127,1,0.018393,0.017628,-9.803100,0.061037,0.135502,0.019532,-0.004250,0.000000,0.299200,0.000000,0.000000,0.001521,0.000000,0.001106,0.000000,-0.015232,0.000000,0.000000,0.000000,0.000000,0.244860,0.000000,0.030548,5,0.000000,0.000000,0.000000,0.000000,0.000000,0.000000,0.000000,0.000000,0.000000,0.000000
34,946684902.464416,1,0.018393,0.017628,-9.803100,0.000000,0.013428,0.019532,-0.004250,0.000000,0.299200,0.000000,0.000000,0.001610,0.000000,0.001163,0.000000,-0.015188,0.000000,0.000000,0.000000,0.000000,0.244860,0.000000,0.030548,5,0.000000,0.000000,0.000000,0.000000,0.000000,0.000000,0.000000,0.000000,0.000000,0.000000
35,946684902.464660,1,0.018393,0.017628,-9.803100,0.000000,0.074465,-0.041505,-0.004250,0.000000,0.299200,0.000000,0.000000,0.001687,0.000000,0.001219,0.000000,-0.015198,0.000000,0.000000,0.000000,0.000000,0.244860,0.000000,0.030548,5,0.000000,0.000000,0.000000,0.000000,0.000000,0.000000,0.000000,0.000000,0.000000,0.000000
36,946684902.464874,1,0.018393,0.017628,-9.803100,0.000000,0.013428,-0.041505,-0.004250,0.000000,0.299200,0.000000,0.000000,0.001748,0.000000,0.001275,0.000000,-0.015207,0.000000,0.000000,0.000000,0.000000,0.244860,0.000000,0.030548,5,0.000000,0.000000,0.000000,0.000000,0.000000,0.000000,0.000000,0.000000,0.000000,0.000000
37,946684902.465087,1,0.018393,0.017628,-9.803100,0.000000,0.013428,0.019532,-0.004250,0.000000,0.299200,0.000000,0.000000,0.001810,0.000000,0.001332,0.000000,-0.015203,0.000000,0.000000,0.000000,0.000000,0.244860,0.000000,0.030548,5,0.000000,0.000000,0.000000,0.000000,0.000000,0.000000,0.000000,0.000000,0.000000,0.000000
38,946684902.465301,1,0.018393,0.017628,-9.803100,0.000000,0.135502,-0.041505,-0.004250,0.000000,0.299200,0.000000,0.000000,0.001897,0.000000,0.001388,0.000000,-0.015211,0.000000,0.000000,0.000000,0.000000,0.244860,0.000000,0.030548,5,0.000000,0.000000,0.000000,0.000000,0.000000,0.000000,0.000000,0.000000,0.000000,0.000000
39,946684902.465515,1,0.018393,0.017628,-9.803100,0.000000,0.074465,0.141606,-0.004250,0.000000,0.299200,0.000000,0.000000,0.001971,0.000000,0.001444,0.000000,-0.015181,0.000000,0.000000,0.000000,0.000000,0.244860,0.000000,0.030548,5,0.000000,0.000000,0.000000,0.000000,0.000000,0.000000,0.000000,0.000000,0.000000,0.000000
40,946684902.465789,1,0.018393,0.017628,-9.803100,0.061037,0.013428,-0.041505,-0.004250,0.000000,0.299200,0.000000,0.000000,0.002034,0.000000,0.001517,0.000000,-0.015193,0.000000,0.000000,0.000000,0.000000,0.244860,0.000000,0.030548,5,0.000000,0.000000,0.000000,0.000000,0.000000,0.000000,0.000000,0.000000,0.000000,0.000000
41,946684902.466735,1,0.018393,0.017628,-9.803100,0.000000,0.074465,0.019532,-0.004250,0.000000,0.299200,0.000000,0.000000,0.002162,0.000000,0.001574,0.000000,-0.015174,0.000000,0.000000,0.000000,0.000000,0.244860,0.000000,0.030548,5,0.000000,0.000000,0.000000,0.000000,0.000000,0.000000,0.000000,0.000000,0.000000,0.000000
42,946684902.467010,1,0.018393,0.017628,-9.803100,0.061037,0.074465,-0.102542,-0.004250,0.000000,0.299200,0.000000,0.000000,0.002241,0.000000,0.001647,0.000000,-0.015202,0.000000,0.000000,0.000000,0.000000,0.244860,0.000000,0.030548,5,0.000000,0.000000,0.000000,0.000000,0.000000,0.000000,0.000000,0.000000,0.000000,0.000000
43,946684902.470397,1,0.018393,0.017628,-9.803100,0.061037,0.135502,0.080569,-0.004250,0.000000,0.299200,0.000000,0.000000,0.002758,0.000000,0.001910,0.000000,-0.014929,0.000000,0.000000,0.000000,0.000000,0.244860,0.000000,0.030548,5,0.000000,0.000000,0.000000,0.000000,0.000000,0.000000,0.000000,0.000000,0.000000,0.000000
44,946684902.470642,1,0.018393,0.017628,-9.803100,0.000000,0.074465,0.019532,0.000000,0.000000,0.299200,0.000000,0.000000,0.002835,0.000000,0.001967,0.000000,-0.014925,0.000000,0.000000,0.000000,0.000000,0.244860,0.000000,0.030548,5,0.000000,0.000000,0.000000,0.000000,0.000000,0.000000,0.000000,0.000000,0.000000,0.000000
45,946684902.470886,1,0.018393,0.017628,-9.803100,0.000000,0.074465,0.019532,0.000000,0.000000,0.299200,0.000000,0.000000,0.002912,0.000000,0.002023,0.000000,-0.014920,0.000000,0.000000,0.000000,0.000000,0.244860,0.000000,0.030548,5,0.000000,0.000000,0.000000,0.000000,0.000000,0.000000,0.000000,0.000000,0.000000,0.000000
46,946684902.471099,1,-0.058248,0.017628,-9.879741,-0.061037,-0.169683,-0.102542,0.000000,0.000000,0.299200,0.000000,0.000000,0.002685,0.000000,0.002066,0.000000,-0.014942,0.000000,0.000000,0.000000,0.000000,0.244860,0.000000,0.030548,5,0.000000,0.000000,0.000000,0.000000,0.000000,0.000000,0.000000,0.000000,0.000000,0.000000
47,946684902.471374,1,-0.058248,-0.059012,-9.879741,-0.061037,0.013428,0.019532,0.000000,0.000000,0.299200,0.000000,0.000000,0.002498,0.000000,0.001857,0.000000,-0.014936,0.000000,0.000000,0.000000,0.000000,0.244860,0.000000,0.030548,5,0.000000,0.000000,0.000000,0.000000,0.000000,0.000000,0.000000,0.000000,0.000000,0.000000
48,946684902.471649,1,0.018393,0.017628,-9.879741,0.061037,-0.108646,0.019532,0.000000,0.000000,0.299200,0.000000,0.000000,0.002527,0.000000,0.001930,0.000000,-0.014931,0.000000,0.000000,0.000000,0.000000,0.244860,0.000000,0.030548,5,0.000000,0.000000,0.000000,0.000000,0.000000,0.000000,0.000000,0.000000,0.000000,0.000000
49,946684902.471954,1,0.018393,0.017628,-9.879741,0.000000,-0.047609,0.080569,0.000000,0.000000,0.299200,0.000000,0.000000,0.002571,0.000000,0.001986,0.000000,-0.014906,0.000000,0.000000,0.000000,0.000000,0.244860,0.000000,0.030548,5,0.000000,0.000000,0.000000,0.000000,0.000000,0.000000,0.000000,0.000000,0.000000,0.000000
50,946684902.472198,1,0.018393,0.017628,-9.803100,0.000000,0.074465,0.019532,0.000000,0.000000,0.299200,0.000000,0.000000,0.002647,0.000000,0.002043,0.000000,-0.014902,0.000000,0.000000,0.000000,0.000000,0.244860,0.000000,0.030548,5,0.000000,0.000000,0.000000,0.000000,0.000000,0.000000,0.000000,0.000000,0.000000,0.000000
51,946684902.472442,1,-0.058248,0.017628,-9.803100,-0.061037,0.013428,-0.102542,0.000000,0.000000,0.299200,0.000000,0.000000,0.002459,0.000000,0.002084,0.000000,-0.014927,0.000000,0.000000,0.000000,0.000000,0.244860,0.000000,0.030548,5,0.000000,0.000000,0.000000,0.000000,0.000000,0.000000,0.000000,0.000000,0.000000,0.000000
52,946684902.472625,1,0.018393,0.017628,-9.879741,0.000000,-0.047609,0.019532,0.000000,0.000000,0.299200,0.000000,0.000000,0.002508,0.000000,0.002141,0.000000,-0.014923,0.000000,0.000000,0.000000,0.000000,0.244860,0.000000,0.030548,5,0.000000,0.000000,0.000000,0.000000,0.000000,0.000000,0.000000,0.000000,0.000000,0.000000
53,946684902.472839,1,0.018393,0.017628,-9.803100,-0.122074,-0.047609,-0.102542,0.000000,0.000000,0.299200,0.000000,0.000000,0.002557,0.000000,0.002171,0.000000,-0.014945,0.000000,0.000000,0.000000,0.000000,0.244860,0.000000,0.030548,5,0.000000,0.000000,0.000000,0.000000,0.000000,0.000000,0.000000,0.000000,0.000000,0.000000
54,946684902.473052,1,0.018393,0.017628,-9.803100,-0.061037,-0.047609,0.019532,0.000000,0.000000,0.299200,0.000000,0.000000,0.002605,0.000000,0.002214,0.000000,-0.014941,0.000000,0.000000,0.000000,0.000000,0.244860,0.000000,0.030548,5,0.000000,0.000000,0.000000,0.000000,0.000000,0.000000,0.000000,0.000000,0.000000,0.000000
55,946684902.473266,1,0.018393,0.017628,-9.803100,0.000000,0.013428,0.080569,0.000000,0.000000,0.299200,0.000000,0.000000,0.002667,0.000000,0.002271,0.000000,-0.014924,0.000000,0.000000,0.000000,0.000000,0.244860,0.000000,0.030548,5,0.000000,0.000000,0.000000,0.000000,0.000000,0.000000,0.000000,0.000000,0.000000,0.000000
56,946684902.473693,1,0.018393,0.017628,-9.803100,0.000000,-0.047609,-0.102542,0.000000,0.000000,0.299200,0.000000,0.000000,0.002705,0.000000,0.002327,0.000000,-0.014967,0.000000,0.000000,0.000000,0.000000,0.244860,0.000000,0.030548,5,0.000000,0.000000,0.000000,0.000000,0.000000,0.000000,0.000000,0.000000,0.000000,0.000000
57,946684902.476501,1,0.018393,0.017628,-9.803100,-0.061037,0.135502,0.019532,0.000000,0.000000,0.299200,0.000000,0.000000,0.003145,0.000000,0.002213,0.000000,-0.014913,0.000000,0.000000,0.000000,0.000000,0.244860,0.000000,0.030548,5,0.000000,0.000000,0.000000,0.000000,0.000000,0.000000,0.000000,0.000000,0.000000,0.000000
58,946684902.476806,1,0.018393,0.017628,-9.803100,0.000000,0.135502,0.080569,0.000000,0.000000,0.299200,0.000000,0.000000,0.003245,0.000000,0.002270,0.000000,-0.014888,0.000000,0.000000,0.000000,0.000000,0.244860,0.000000,0.030548,5,0.000000,0.000000,0.000000,0.000000,0.000000,0.000000,0.000000,0.000000,0.000000,0.000000
59,946684902.477081,1,0.018393,0.017628,-9.803100,-0.061037,-0.047609,-0.041505,0.000000,0.000000,0.299200,0.000000,0.000000,0.003291,0.000000,0.002310,0.000000,-0.014899,0.000000,0.000000,0.000000,0.000000,0.244860,0.000000,0.030548,5,0.000000,0.000000,0.000000,0.000000,0.000000,0.000000,0.000000,0.000000,0.000000,0.000000
60,946684902.477264,1,0.018393,0.017628,-9.803100,0.000000,-0.169683,-0.102542,0.000000,0.000000,0.299200,0.000000,0.000000,0.003318,0.000000,0.002367,0.000000,-0.014918,0.000000,0.000000,0.000000,0.000000,0.244860,0.000000,0.030548,5,0.000000,0.000000,0.000000,0.000000,0.000000,0.000000,0.000000,0.000000,0.000000,0.000000
61,946684902.477539,1,0.018393,0.017628,-9.803100,0.000000,-0.047609,-0.041505,0.000000,0.000000,0.299200,0.000000,0.000000,0.003364,0.000000,0.002424,0.000000,-0.014930,0.000000,0.000000,0.000000,0.000000,0.244860,0.000000,0.030548,5,0.000000,0.000000,0.000000,0.000000,0.000000,0.000000,0.000000,0.000000,0.000000,0.000000
62,946684902.478088,1,-0.058248,0.017628,-9.803100,0.122074,-0.047609,0.080569,0.000000,0.000000,0.299200,0.000000,0.000000,0.003144,0.000000,0.002548,0.000000,-0.014885,0.000000,0.000000,0.000000,0.000000,0.244860,0.000000,0.030548,5,0.000000,0.000000,0.000000,0.000000,0.000000,0.000000,0.000000,0.000000,0.000000,0.000000
63,946684902.478393,1,-0.058248,0.017628,-9.803100,0.061037,0.074465,-0.163579,0.000000,0.000000,0.299200,0.000000,0.000000,0.002972,0.000000,0.002624,0.000000,-0.014935,0.000000,0.000000,0.000000,0.000000,0.244860,0.000000,0.030548,5,0.000000,0.000000,0.000000,0.000000,0.000000,0.000000,0.000000,0.000000,0.000000,0.000000
64,946684902.478576,1,-0.058248,0.017628,-9.726460,0.000000,0.013428,0.019532,0.000000,0.000000,0.299200,0.000000,0.000000,0.002779,0.000000,0.002681,0.000000,-0.014932,0.000000,0.000000,0.000000,0.000000,0.244860,0.000000,0.030548,5,0.000000,0.000000,0.000000,0.000000,0.000000,0.000000,0.000000,0.000000,0.000000,0.000000
65,946684902.479309,1,-0.058248,0.017628,-9.726460,0.000000,0.013428,0.019532,0.000000,0.000000,0.299200,0.000000,0.000000,0.002593,0.000000,0.002738,0.000000,-0.014917,0.000000,0.000000,0.000000,0.000000,0.244860,0.000000,0.030548,5,0.000000,0.000000,0.000000,0.000000,0.000000,0.000000,0.000000,0.000000,0.000000,0.000000
66,946684902.479614,1,0.018393,0.017628,-9.803100,0.000000,0.013428,-0.102542,0.000000,0.000000,0.299200,0.000000,0.000000,0.002656,0.000000,0.002795,0.000000,-0.014949,0.000000,0.000000,0.000000,0.000000,0.000000,0.000000,0.042481,6,0.000000,0.000000,0.000000,0.000000,0.000000,0.000000,0.000000,0.000000,0.000000,0.000000
67,946684902.480102,1,0.018393,0.017628,-9.803100,0.000000,0.074465,-0.041505,0.000000,0.000000,0.299200,0.000000,0.000000,0.002752,0.000000,0.002852,0.000000,-0.014969,0.000000,0.000000,0.000000,0.000000,0.000000,0.000000,0.042481,6,0.000000,0.000000,0.000000,0.000000,0.000000,0.000000,0.000000,0.000000,0.000000,0.000000
68,946684902.480438,1,0.018393,0.017628,-9.726460,-0.122074,0.013428,0.080569,0.004250,0.000000,0.299540,0.000000,0.000000,0.002816,0.000000,0.002868,0.000000,-0.014942,0.000000,0.000000,0.000000,0.000000,0.000000,0.000000,0.042481,6,0.000000,0.000000,0.000000,0.000000,0.000000,0.000000,0.000000,0.000000,0.000000,0.000000
69,946684902.480773,1,0.018393,0.017628,-9.726460,0.122074,0.074465,-0.041505,0.004250,0.000000,0.299540,0.000000,0.000000,0.002901,0.000000,0.002966,0.000000,-0.014956,0.000000,0.000000,0.000000,0.000000,0.000000,0.000000,0.042481,6,0.000000,0.000000,0.000000,0.000000,0.000000,0.000000,0.000000,0.000000,0.000000,0.000000
70,946684902.481079,1,0.018393,0.017628,-9.803100,-0.061037,0.074465,-0.041505,0.004250,0.000000,0.299540,0.000000,0.000000,0.002983,0.000000,0.003005,0.000000,-0.014968,0.000000,0.000000,0.000000,0.000000,0.000000,0.000000,0.042481,6,0.000000,0.000000,0.000000,0.000000,0.000000,0.000000,0.000000,0.000000,0.000000,0.000000
71,946684902.481384,1,0.018393,0.017628,-9.803100,0.122074,0.074465,0.080569,0.004250,0.000000,0.299540,0.000000,0.000000,0.003065,0.000000,0.003099,0.000000,-0.014944,0.000000,0.000000,0.000000,0.000000,0.000000,0.000000,0.042481,6,0.000000,0.000000,0.000000,0.000000,0.000000,0.000000,0.000000,0.000000,0.000000,0.000000
72,946684902.481781,1,0.018393,0.017628,-9.803100,-0.061037,-0.047609,-0.041505,0.004250,0.000000,0.299540,0.000000,0.000000,0.003105,0.000000,0.003131,0.000000,-0.014960,0.000000,0.000000,0.000000,0.000000,0.000000,0.000000,0.042481,6,0.000000,0.000000,0.000000,0.000000,0.000000,0.000000,0.000000,0.000000,0.000000,0.000000
73,946684902.482116,1,0.018393,0.017628,-9.803100,0.000000,-0.047609,0.019532,0.004250,0.000000,0.299540,0.000000,0.000000,0.003149,0.000000,0.003188,0.000000,-0.014954,0.000000,0.000000,0.000000,0.000000,0.000000,0.000000,0.042481,6,0.000000,0.000000,0.000000,0.000000,0.000000,0.000000,0.000000,0.000000,0.000000,0.000000
74,946684902.482513,1,0.018393,0.017628,-9.803100,0.061037,0.074465,0.080569,0.004250,0.000000,0.299540,0.000000,0.000000,0.003238,0.000000,0.003269,0.000000,-0.014922,0.000000,0.000000,0.000000,0.000000,0.000000,0.000000,0.042481,6,0.000000,0.000000,0.000000,0.000000,0.000000,0.000000,0.000000,0.000000,0.000000,0.000000
75,946684902.482849,1,0.018393,0.017628,-9.803100,0.000000,0.074465,-0.041505,0.004250,0.000000,0.299540,0.000000,0.000000,0.003322,0.000000,0.003326,0.000000,-0.014936,0.000000,0.000000,0.000000,0.000000,0.000000,0.000000,0.042481,6,0.000000,0.000000,0.000000,0.000000,0.000000,0.000000,0.000000,0.000000,0.000000,0.000000
76,946684902.483154,1,-0.058248,0.017628,-9.803100,0.000000,-0.047609,-0.041505,0.000001,0.000000,0.299200,0.000000,0.000000,0.003112,0.000000,0.003383,0.000000,-0.014948,0.000000,0.000000,0.000000,0.000000,0.000000,0.000000,0.042481,6,0.000000,0.000000,0.000000,0.000000,0.000000,0.000000,0.000000,0.000000,0.000000,0.000000
77,946684902.483459,1,-0.058248,0.017628,-9.879741,-0.061037,0.013428,0.019532,0.000001,0.000000,0.299200,0.000000,0.000000,0.002922,0.000000,0.003420,0.000000,-0.014942,0.000000,0.000000,0.000000,0.000000,0.000000,0.000000,0.042481,6,0.000000,0.000000,0.000000,0.000000,0.000000,0.000000,0.000000,0.000000,0.000000,0.000000
78,946684902.483764,1,-0.058248,0.017628,-9.803100,-0.061037,0.074465,0.019532,0.000001,0.000000,0.299200,0.000000,0.000000,0.002749,0.000000,0.003459,0.000000,-0.014936,0.000000,0.000000,0.000000,0.000000,0.000000,0.000000,0.042481,6,0.000000,0.000000,0.000000,0.000000,0.000000,0.000000,0.000000,0.000000,0.000000,0.000000
79,946684902.484069,1,0.018393,0.017628,-9.803100,0.122074,0.013428,0.019532,0.000001,0.000000,0.299200,0.000000,0.000000,0.002813,0.000000,0.003553,0.000000,-0.014930,0.000000,0.000000,0.000000,0.000000,0.000000,0.000000,0.042481,6,0.000000,0.000000,0.000000,0.000000,0.000000,0.000000,0.000000,0.000000,0.000000,0.000000
80,946684902.484405,1,0.018393,0.017628,-9.803100,0.000000,0.135502,0.019532,0.000001,0.000000,0.299200,0.000000,0.000000,0.002918,0.000000,0.003609,0.000000,-0.014924,0.000000,0.000000,0.000000,0.000000,0.000000,0.000000,0.042481,6,0.000000,0.000000,0.000000,0.000000,0.000000,0.000000,0.000000,0.000000,0.000000,0.000000
81,946684902.484741,1,0.018393,0.017628,-9.803100,-0.061037,0.074465,0.080569,0.000001,0.000000,0.299200,0.000000,0.000000,0.003002,0.000000,0.003645,0.000000,-0.014897,0.000000,0.000000,0.000000,0.000000,0.000000,0.000000,0.042481,6,0.000000,0.000000,0.000000,0.000000,0.000000,0.000000,0.000000,0.000000,0.000000,0.000000
82,946684902.487365,1,0.018393,-0.059012,-9.803100,0.000000,-0.047609,-0.041505,0.000001,0.000000,0.299200,0.000000,0.000000,0.002937,0.000000,0.003446,0.000000,-0.015006,0.000000,0.000000,0.000000,0.000000,0.000000,0.000000,0.042481,6,0.000000,0.000000,0.000000,0.000000,0.000000,0.000000,0.000000,0.000000,0.000000,0.000000
83,946684902.492370,1,0.018393,-0.059012,-9.803100,0.000000,-0.047609,0.019532,0.000001,0.000000,0.299200,0.000000,0.000000,0.002759,0.000000,0.003245,0.000000,-0.014908,0.000000,0.000000,0.000000,0.000000,0.000000,0.000000,0.042481,6,0.000000,0.000000,0.000000,0.000000,0.000000,0.000000,0.000000,0.000000,0.000000,0.000000
84,946684902.497802,1,0.018393,0.017628,-9.803100,0.061037,-0.047609,0.019532,0.000000,0.000000,0.299540,0.000000,0.000000,0.002562,0.000000,0.003636,0.000000,-0.014802,0.000000,0.000000,0.000000,0.000000,0.000000,0.000000,0.042481,6,0.000000,0.000000,0.000000,0.000000,0.000000,0.000000,0.000000,0.000000,0.000000,0.000000
85,946684902.502502,1,0.018393,0.017628,-9.803100,0.000000,0.135502,0.019532,0.000000,0.000000,0.299540,0.000000,0.000000,0.003261,0.000000,0.003697,0.000000,-0.014710,0.000000,0.000000,0.000000,0.000000,0.000000,0.000000,0.042481,6,0.000000,0.000000,0.000000,0.000000,0.000000,0.000000,0.000000,0.000000,0.000000,0.000000
86,946684902.507476,1,0.018393,0.017628,-9.803100,0.000000,0.074465,-0.041505,0.000000,0.000000,0.299540,0.000000,0.000000,0.003694,0.000000,0.003758,0.000000,-0.014917,0.000000,0.000000,0.000000,0.000000,0.000000,0.000000,0.042481,6,0.000000,0.000000,0.000000,0.000000,0.000000,0.000000,0.000000,0.000000,0.000000,0.000000
87,946684902.512481,1,0.018393,0.017628,-9.803100,-0.061037,-0.108646,-0.041505,0.000000,0.000000,0.299540,0.000000,0.000000,0.003213,0.000000,0.003514,0.000000,-0.015124,0.000000,0.000000,0.000000,0.000000,0.000000,0.000000,0.042481,6,0.000000,0.000000,0.000000,0.000000,0.000000,0.000000,0.000000,0.000000,0.000000,0.000000
88,946684902.517517,1,0.018393,0.017628,-9.803100,0.061037,0.013428,0.080569,0.000000,0.000000,0.299540,0.000000,0.000000,0.003345,0.000000,0.003885,0.000000,-0.014719,0.000000,0.000000,0.000000,0.000000,0.000000,0.000000,0.042481,6,0.000000,0.000000,0.000000,0.000000,0.000000,0.000000,0.000000,0.000000,0.000000,0.000000
89,946684902.522491,1,0.018393,0.017628,-9.879741,-0.122074,0.135502,0.019532,0.000000,0.000000,0.299540,0.000000,0.000000,0.004084,0.000000,0.003341,0.000000,-0.014621,0.000000,0.000000,0.000000,0.000000,0.000000,0.000000,0.042481,6,0.000000,0.000000,0.000000,0.000000,0.000000,0.000000,0.000000,0.000000,0.000000,0.000000
90,946684902.527526,1,0.018393,0.017628,-9.879741,-0.122074,0.013428,0.019532,0.000000,0.000000,0.299540,0.000000,0.000000,0.004217,0.000000,0.002791,0.000000,-0.014523,0.000000,0.000000,0.000000,0.000000,0.000000,0.000000,0.042481,6,0.000000,0.000000,0.000000,0.000000,0.000000,0.000000,0.000000,0.000000,0.000000,0.000000
91,946684902.532562,1,0.018393,0.017628,-9.803100,0.000000,0.196539,0.080569,0.000000,0.000000,0.299540,0.000000,0.000000,0.005272,0.000000,0.002857,0.000000,-0.014117,0.000000,0.000000,0.000000,0.000000,0.000000,0.000000,0.049499,7,0.000000,0.000000,0.000000,0.000000,0.000000,0.000000,0.000000,0.000000,0.000000,0.000000
92,946684902.537628,1,0.018393,0.017628,-9.803100,0.000000,0.013428,-0.041505,0.004250,0.000000,0.299540,0.000000,0.000000,0.005407,0.000000,0.002924,0.000000,-0.014328,0.000000,0.000000,0.000000,0.000000,0.000000,0.000000,0.049499,7,0.000000,0.000000,0.000000,0.000000,0.000000,0.000000,0.000000,0.000000,0.000000,0.000000
93,946684902.542572,1,0.018393,0.017628,-9.879741,-0.061037,-0.108646,0.019532,0.004250,0.000000,0.299540,0.000000,0.000000,0.004938,0.000000,0.002690,0.000000,-0.014231,0.000000,0.000000,0.000000,0.000000,0.000000,0.000000,0.049499,7,0.000000,0.000000,0.000000,0.000000,0.000000,0.000000,0.000000,0.000000,0.000000,0.000000
94,946684902.547576,1,0.018393,0.017628,-9.879741,-0.061037,0.013428,-0.041505,0.004250,0.000000,0.299540,0.000000,0.000000,0.005073,0.000000,0.002453,0.000000,-0.014439,0.000000,0.000000,0.000000,0.000000,0.000000,0.000000,0.049499,7,0.000000,0.000000,0.000000,0.000000,0.000000,0.000000,0.000000,0.000000,0.000000,0.000000
95,946684902.552551,1,0.018393,0.017628,-9.803100,-0.122074,0.074465,0.019532,0.004250,0.000000,0.299540,0.000000,0.000000,0.005513,0.000000,0.001916,0.000000,-0.014342,0.000000,0.000000,0.000000,0.000000,0.000000,0.000000,0.049499,7,0.000000,0.000000,0.000000,0.000000,0.000000,0.000000,0.000000,0.000000,0.000000,0.000000
96,946684902.557586,1,0.018393,0.017628,-9.803100,0.000000,0.074465,0.080569,0.004250,0.000000,0.299540,0.000000,0.000000,0.005958,0.000000,0.001988,0.000000,-0.013936,0.000000,0.000000,0.000000,0.000000,0.000000,0.000000,0.049499,7,0.000000,0.000000,0.000000,0.000000,0.000000,0.000000,0.000000,0.000000,0.000000,0.000000
97,946684902.562591,1,0.018393,0.017628,-9.879741,0.061037,0.013428,-0.041505,0.004250,0.000000,0.299540,0.000000,0.000000,0.006096,0.000000,0.002365,0.000000,-0.014144,0.000000,0.000000,0.000000,0.000000,0.000000,0.000000,0.031800,8,0.000000,0.000000,0.000000,0.000000,0.000000,0.000000,0.000000,0.000000,0.000000,0.000000
98,946684902.567626,1,-0.058248,-0.059012,-9.803100,0.000000,-0.047609,0.019532,0.004250,0.000000,0.299540,0.000000,0.000000,0.005613,0.000000,0.002122,0.000000,-0.014045,0.000000,0.000000,0.000000,0.000000,0.000000,0.000000,0.031800,8,0.000000,0.000000,0.000000,0.000000,0.000000,0.000000,0.000000,0.000000,0.000000,0.000000
99,946684902.572631,1,0.018393,-0.059012,-9.879741,0.000000,0.074465,0.080569,0.004250,0.000000,0.299540,0.000000,0.000000,0.006058,0.000000,0.001877,0.000000,-0.013642,0.000000,0.000000,0.000000,0.000000,0.000000,0.000000,0.031800,8,0.000000,0.000000,0.000000,0.000000,0.000000,0.000000,0.000000,0.000000,0.000000,0.000000
100,946684902.577789,1,0.018393,-0.059012,-9.879741,0.000000,0.013428,-0.041505,0.000000,0.000000,0.299540,0.000000,0.000000,0.006200,0.000000,0.001629,0.000000,-0.013856,0.000000,0.000000,0.000000,0.000000,0.000000,0.000000,0.031800,8,0.000000,0.000000,0.000000,0.000000,0.000000,0.000000,0.000000,0.000000,0.000000,0.000000
101,946684902.582702,1,-0.058248,-0.059012,-9.879741,-0.122074,0.074465,0.019532,0.000000,0.000000,0.299540,0.000000,0.000000,0.006314,0.000000,0.000779,0.000000,-0.013760,0.000000,0.000000,0.000000,0.000000,0.000000,0.000000,0.031800,8,0.000000,0.000000,0.000000,0.000000,0.000000,0.000000,0.000000,0.000000,0.000000,0.000000
102,946684902.587707,1,-0.058248,-0.059012,-9.803100,0.000000,0.135502,0.019532,0.000000,0.000000,0.299540,0.000000,0.000000,0.006734,0.000000,0.000523,0.000000,-0.013662,0.000000,0.000000,0.000000,0.000000,0.000000,0.000000,0.031800,8,0.000000,0.000000,0.000000,0.000000,0.000000,0.000000,0.000000,0.000000,0.000000,0.000000
103,946684902.592681,1,0.018393,-0.059012,-9.803100,0.000000,0.013428,-0.041505,0.000000,0.000000,0.299540,0.000000,0.000000,0.006876,0.000000,0.000263,0.000000,-0.013869,0.000000,0.000000,0.000000,0.000000,0.000000,0.000000,0.031189,9,0.000000,0.000000,0.000000,0.000000,0.000000,0.000000,0.000000,0.000000,0.000000,0.000000
104,946684902.597717,1,0.018393,0.017628,-9.803100,-0.122074,0.013428,0.019532,0.000000,0.000000,0.299540,0.000000,0.000000,0.007020,0.000000,-0.000274,0.000000,-0.013770,0.000000,0.000000,0.000000,0.000000,0.000000,0.000000,0.031189,9,0.000000,0.000000,0.000000,0.000000,0.000000,0.000000,0.000000,0.000000,0.000000,0.000000
105,946684902.602722,1,0.018393,0.017628,-9.803100,-0.061037,-0.047609,0.019532,0.000000,0.000000,0.299540,0.000000,0.000000,0.006859,0.000000,-0.000500,0.000000,-0.013673,0.000000,0.000000,0.000000,0.000000,0.000000,0.000000,0.031189,9,0.000000,0.000000,0.000000,0.000000,0.000000,0.000000,0.000000,0.000000,0.000000,0.000000
106,946684902.607757,1,0.018393,0.017628,-9.803100,-0.061037,0.013428,0.019532,0.000000,0.000000,0.299540,0.000000,0.000000,0.007005,0.000000,-0.000726,0.000000,-0.013574,0.000000,0.000000,0.000000,0.000000,0.000000,0.000000,0.031189,9,0.000000,0.000000,0.000000,0.000000,0.000000,0.000000,0.000000,0.000000,0.000000,0.000000
107,946684902.612762,1,-0.058248,0.017628,-9.803100,0.000000,0.013428,-0.041505,0.000000,0.000000,0.299540,0.000000,0.000000,0.006798,0.000000,-0.000644,0.000000,-0.013782,0.000000,0.000000,0.000000,0.000000,0.000000,0.000000,0.031189,9,0.000000,0.000000,0.000000,0.000000,0.000000,0.000000,0.000000,0.000000,0.000000,0.000000
108,946684902.617919,1,0.018393,0.017628,-9.803100,0.000000,0.074465,0.019532,0.000000,0.000000,0.299540,0.000000,0.000000,0.007262,0.000000,-0.000561,0.000000,-0.013681,0.000000,0.000000,0.000000,0.000000,0.000000,0.000000,0.031189,9,0.000000,0.000000,0.000000,0.000000,0.000000,0.000000,0.000000,0.000000,0.000000,0.000000
109,946684902.622833,1,0.018393,0.017628,-9.803100,0.122074,0.013428,-0.041505,0.000000,0.000000,0.299540,0.000000,0.000000,0.007409,0.000000,0.000122,0.000000,-0.013885,0.000000,0.000000,0.000000,0.000000,0.000000,0.000000,0.031189,9,0.000000,0.000000,0.000000,0.000000,0.000000,0.000000,0.000000,0.000000,0.000000,0.000000
110,946684902.627838,1,0.018393,0.017628,-9.803100,0.000000,-0.047609,-0.041505,0.000000,0.000000,0.299540,0.000000,0.000000,0.007253,0.000000,0.000207,0.000000,-0.014093,0.000000,0.000000,0.000000,0.000000,0.000000,0.000000,0.031677,10,0.000000,0.000000,0.000000,0.000000,0.000000,0.000000,0.000000,0.000000,0.000000,0.000000
111,946684902.632812,1,0.018393,0.017628,-9.803100,-0.061037,-0.047609,0.019532,0.000000,0.000000,0.299540,0.000000,0.000000,0.007100,0.000000,-0.000010,0.000000,-0.013996,0.000000,0.000000,0.000000,0.000000,0.000000,0.000000,0.031677,10,0.000000,0.000000,0.000000,0.000000,0.000000,0.000000,0.000000,0.000000,0.000000,0.000000
112,946684902.637878,1,0.018393,0.017628,-9.803100,0.000000,0.074465,0.019532,0.000000,0.000000,0.299540,0.000000,0.000000,0.007561,0.000000,0.000077,0.000000,-0.013897,0.000000,0.000000,0.000000,0.000000,0.000000,0.000000,0.031677,10,0.000000,0.000000,0.000000,0.000000,0.000000,0.000000,0.000000,0.000000,0.000000,0.000000
113,946684902.642883,1,0.018393,0.017628,-9.803100,0.061037,-0.047609,-0.041505,0.000000,0.000000,0.299540,0.000000,0.000000,0.007409,0.000000,0.000471,0.000000,-0.014105,0.000000,0.000000,0.000000,0.000000,0.000000,0.000000,0.031677,10,0.000000,0.000000,0.000000,0.000000,0.000000,0.000000,0.000000,0.000000,0.000000,0.000000
114,946684902.647888,1,0.018393,0.017628,-9.803100,0.061037,0.074465,0.141606,0.000000,0.000000,0.299540,0.000000,0.000000,0.007868,0.000000,0.000866,0.000000,-0.013396,0.000000,0.000000,0.000000,0.000000,0.000000,0.000000,0.031677,10,0.000000,0.000000,0.000000,0.000000,0.000000,0.000000,0.000000,0.000000,0.000000,0.000000
115,946684902.652893,1,0.018393,0.017628,-9.803100,0.000000,0.074465,0.080569,0.000000,0.000000,0.299540,0.000000,0.000000,0.008328,0.000000,0.000957,0.000000,-0.012993,0.000000,0.000000,0.000000,0.000000,0.000000,0.000000,0.031677,10,0.000000,0.000000,0.000000,0.000000,0.000000,0.000000,0.000000,0.000000,0.000000,0.000000
116,946684902.658050,1,0.018393,0.017628,-9.803100,0.061037,0.013428,0.019532,-0.004250,0.000000,0.299200,0.000000,0.000000,0.008486,0.000000,0.001363,0.000000,-0.012892,0.000000,0.000000,0.000000,0.000000,0.000000,0.000000,0.032593,11,0.000000,0.000000,0.000000,0.000000,0.000000,0.000000,0.000000,0.000000,0.000000,0.000000
117,946684902.662963,1,0.018393,0.017628,-9.803100,0.000000,0.196539,0.080569,-0.004250,0.000000,0.299200,0.000000,0.000000,0.009541,0.000000,0.001456,0.000000,-0.012496,0.000000,0.000000,0.000000,0.000000,0.000000,0.000000,0.032593,11,0.000000,0.000000,0.000000,0.000000,0.000000,0.000000,0.000000,0.000000,0.000000,0.000000
118,946684902.667968,1,0.018393,0.017628,-9.803100,0.000000,-0.047609,-0.041505,-0.004250,0.000000,0.299200,0.000000,0.000000,0.009393,0.000000,0.001550,0.000000,-0.012704,0.000000,0.000000,0.000000,0.000000,0.000000,0.000000,0.032593,11,0.000000,0.000000,0.000000,0.000000,0.000000,0.000000,0.000000,0.000000,0.000000,0.000000
119,946684902.672973,1,0.018393,0.017628,-9.803100,0.000000,-0.047609,-0.041505,-0.004250,0.000000,0.299200,0.000000,0.000000,0.009246,0.000000,0.001645,0.000000,-0.012912,0.000000,0.000000,0.000000,0.000000,0.000000,0.000000,0.032593,11,0.000000,0.000000,0.000000,0.000000,0.000000,0.000000,0.000000,0.000000,0.000000,0.000000
120,946684902.678009,1,0.018393,0.017628,-9.803100,-0.061037,0.135502,-0.041505,-0.004250,0.000000,0.299200,0.000000,0.000000,0.010021,0.000000,0.001434,0.000000,-0.013121,0.000000,0.000000,0.000000,0.000000,0.000000,0.000000,0.032593,11,0.000000,0.000000,0.000000,0.000000,0.000000,0.000000,0.000000,0.000000,0.000000,0.000000
121,946684902.683013,1,0.018393,0.017628,-9.803100,-0.061037,-0.047609,-0.041505,-0.004250,0.000000,0.299200,0.000000,0.000000,0.009877,0.000000,0.001227,0.000000,-0.013328,0.000000,0.000000,0.000000,0.000000,0.000000,0.000000,0.032593,11,0.000000,0.000000,0.000000,0.000000,0.000000,0.000000,0.000000,0.000000,0.000000,0.000000
122,946684902.688049,1,0.018393,0.017628,-9.803100,0.000000,-0.108646,-0.102542,-0.004250,0.000000,0.299200,0.000000,0.000000,0.009425,0.000000,0.001327,0.000000,-0.013845,0.000000,0.000000,0.000000,0.000000,0.000000,0.000000,0.032593,11,0.000000,0.000000,0.000000,0.000000,0.000000,0.000000,0.000000,0.000000,0.000000,0.000000
123,946684902.693023,1,0.018393,0.017628,-9.803100,0.000000,0.013428,0.019532,-0.004250,0.000000,0.299200,0.000000,0.000000,0.009589,0.000000,0.001428,0.000000,-0.013748,0.000000,0.000000,0.000000,0.000000,-0.088807,0.088807,0.033691,12,0.000000,0.000000,0.000000,0.000000,0.000000,0.000000,0.000000,0.000000,0.000000,0.000000
124,946684902.698181,1,0.018393,0.017628,-9.803100,0.000000,-0.108646,0.080569,-0.004250,0.000000,0.299200,0.000000,0.000000,0.009127,0.000000,0.001530,0.000000,-0.013332,0.000000,0.000000,0.000000,0.000000,-0.088807,0.088807,0.033691,12,0.000000,0.000000,0.000000,0.000000,0.000000,0.000000,0.000000,0.000000,0.000000,0.000000
125,946684902.703094,1,0.018393,0.017628,-9.803100,0.061037,0.013428,-0.102542,-0.004250,0.000000,0.299200,0.000000,0.000000,0.009293,0.000000,0.001934,0.000000,-0.013836,0.000000,0.000000,0.000000,0.000000,-0.088807,0.088807,0.033691,12,0.000000,0.000000,0.000000,0.000000,0.000000,0.000000,0.000000,0.000000,0.000000,0.000000
126,946684902.708099,1,0.018393,0.017628,-9.803100,0.000000,-0.047609,0.019532,-0.004250,0.000000,0.299200,0.000000,0.000000,0.009156,0.000000,0.002038,0.000000,-0.013738,0.000000,0.000000,0.000000,0.000000,-0.088807,0.088807,0.033691,12,0.000000,0.000000,0.000000,0.000000,0.000000,0.000000,0.000000,0.000000,0.000000,0.000000
127,946684902.713104,1,0.018393,0.017628,-9.803100,0.000000,-0.047609,0.080569,-0.004250,0.000000,0.299200,0.000000,0.000000,0.009021,0.000000,0.002145,0.000000,-0.013335,0.000000,0.000000,0.000000,0.000000,-0.088807,0.088807,0.033691,12,0.000000,0.000000,0.000000,0.000000,0.000000,0.000000,0.000000,0.000000,0.000000,0.000000
128,946684902.718139,1,0.018393,0.017628,-9.803100,-0.122074,0.135502,-0.041505,-0.004250,0.000000,0.299200,0.000000,0.000000,0.009807,0.000000,0.001638,0.000000,-0.013544,0.000000,0.000000,0.000000,0.000000,-0.088807,0.088807,0.033691,12,0.000000,0.000000,0.000000,0.000000,0.000000,0.000000,0.000000,0.000000,0.000000,0.000000
129,946684902.723144,1,0.018393,0.017628,-9.803100,-0.061037,0.074465,0.019532,-0.004250,0.000000,0.299200,0.000000,0.000000,0.010284,0.000000,0.001442,0.000000,-0.013446,0.000000,0.000000,0.000000,0.000000,0.000000,0.000000,0.032776,13,0.000000,0.000000,0.000000,0.000000,0.000000,0.000000,0.000000,0.000000,0.000000,0.000000
130,946684902.728179,1,0.018393,0.017628,-9.803100,-0.061037,-0.108646,0.019532,-0.004250,0.000000,0.299200,0.000000,0.000000,0.009844,0.000000,0.001247,0.000000,-0.013348,0.000000,0.000000,0.000000,0.000000,0.000000,0.000000,0.032776,13,0.000000,0.000000,0.000000,0.000000,0.000000,0.000000,0.000000,0.000000,0.000000,0.000000
131,946684902.733154,1,0.018393,0.017628,-9.803100,0.061037,0.074465,-0.102542,-0.004250,0.000000,0.299200,0.000000,0.000000,0.010322,0.000000,0.001663,0.000000,-0.013858,0.000000,0.000000,0.000000,0.000000,0.000000,0.000000,0.032776,13,0.000000,0.000000,0.000000,0.000000,0.000000,0.000000,0.000000,0.000000,0.000000,0.000000
132,946684902.738464,1,0.018393,0.017628,-9.803100,0.061037,-0.047609,-0.041505,0.004250,0.000000,0.299540,0.000000,0.000000,0.010179,0.000000,0.002102,0.000000,-0.014078,0.000000,0.000000,0.000000,0.000000,0.000000,0.000000,0.032776,13,0.000000,0.000000,0.000000,0.000000,0.000000,0.000000,0.000000,0.000000,0.000000,0.000000
133,946684902.743225,1,0.018393,0.017628,-9.879741,-0.122074,0.013428,-0.041505,0.004250,0.000000,0.299540,0.000000,0.000000,0.010352,0.000000,0.001635,0.000000,-0.014276,0.000000,0.000000,0.000000,0.000000,0.000000,0.000000,0.032776,13,0.000000,0.000000,0.000000,0.000000,0.000000,0.000000,0.000000,0.000000,0.000000,0.000000
134,946684902.748229,1,0.018393,0.017628,-9.879741,0.061037,0.135502,0.019532,0.004250,0.000000,0.299540,0.000000,0.000000,0.011141,0.000000,0.002057,0.000000,-0.014178,0.000000,0.000000,0.000000,0.000000,0.000000,0.000000,0.032776,13,0.000000,0.000000,0.000000,0.000000,0.000000,0.000000,0.000000,0.000000,0.000000,0.000000
135,946684902.753234,1,0.018393,0.017628,-9.879741,-0.061037,0.013428,-0.041505,0.004250,0.000000,0.299540,0.000000,0.000000,0.011320,0.000000,0.001869,0.000000,-0.014386,0.000000,0.000000,0.000000,0.000000,0.000000,0.000000,0.032776,13,0.000000,0.000000,0.000000,0.000000,0.000000,0.000000,0.000000,0.000000,0.000000,0.000000
136,946684902.758270,1,0.018393,0.017628,-9.879741,0.000000,-0.047609,0.019532,0.004250,0.000000,0.299540,0.000000,0.000000,0.011193,0.000000,0.001989,0.000000,-0.014287,0.000000,0.000000,0.000000,0.000000,0.000000,0.000000,0.033630,14,0.000000,0.000000,0.000000,0.000000,0.000000,0.000000,0.000000,0.000000,0.000000,0.000000
137,946684902.763275,1,0.018393,0.017628,-9.879741,0.061037,0.074465,-0.041505,0.004250,0.000000,0.299540,0.000000,0.000000,0.011681,0.000000,0.002415,0.000000,-0.014495,0.000000,0.000000,0.000000,0.000000,0.000000,0.000000,0.033630,14,0.000000,0.000000,0.000000,0.000000,0.000000,0.000000,0.000000,0.000000,0.000000,0.000000
138,946684902.768310,1,0.018393,0.017628,-9.879741,-0.061037,0.013428,0.080569,0.004250,0.000000,0.299540,0.000000,0.000000,0.011864,0.000000,0.002230,0.000000,-0.014090,0.000000,0.000000,0.000000,0.000000,0.000000,0.000000,0.033630,14,0.000000,0.000000,0.000000,0.000000,0.000000,0.000000,0.000000,0.000000,0.000000,0.000000
139,946684902.773315,1,0.018393,0.017628,-9.879741,0.000000,0.196539,-0.102542,0.004250,0.000000,0.299540,0.000000,0.000000,0.012964,0.000000,0.002354,0.000000,-0.014603,0.000000,0.000000,0.000000,0.000000,0.000000,0.000000,0.033630,14,0.000000,0.000000,0.000000,0.000000,0.000000,0.000000,0.000000,0.000000,0.000000,0.000000
140,946684902.778442,1,0.018393,0.017628,-9.879741,0.000000,0.135502,-0.102542,0.004250,0.000000,0.299540,0.000000,0.000000,0.013776,0.000000,0.002480,0.000000,-0.015128,0.000000,0.000000,0.000000,0.000000,0.000000,0.000000,0.033630,14,0.000000,0.000000,0.000000,0.000000,0.000000,0.000000,0.000000,0.000000,0.000000,0.000000
141,946684902.783386,1,0.018393,0.017628,-9.803100,-0.061037,-0.047609,-0.041505,0.004250,0.000000,0.299540,0.000000,0.000000,0.013660,0.000000,0.002307,0.000000,-0.015334,0.000000,0.000000,0.000000,0.000000,0.000000,0.000000,0.033630,14,0.000000,0.000000,0.000000,0.000000,0.000000,0.000000,0.000000,0.000000,0.000000,0.000000
142,946684902.788360,1,0.018393,0.017628,-9.803100,-0.061037,0.074465,0.019532,0.004250,0.000000,0.299540,0.000000,0.000000,0.014150,0.000000,0.002134,0.000000,-0.015237,0.000000,0.000000,0.000000,0.000000,0.000000,0.000000,0.030487,15,0.000000,0.000000,0.000000,0.000000,0.000000,0.000000,0.000000,0.000000,0.000000,0.000000
143,946684902.793365,1,0.018393,0.017628,-9.803100,-0.061037,-0.047609,0.019532,0.004250,0.000000,0.299540,0.000000,0.000000,0.014035,0.000000,0.001961,0.000000,-0.015139,0.000000,0.000000,0.000000,0.000000,0.000000,0.000000,0.030487,15,0.000000,0.000000,0.000000,0.000000,0.000000,0.000000,0.000000,0.000000,0.000000,0.000000
144,946684902.798400,1,0.018393,0.017628,-9.803100,-0.061037,0.013428,0.019532,0.004250,0.000000,0.299540,0.000000,0.000000,0.014226,0.000000,0.001788,0.000000,-0.015040,0.000000,0.000000,0.000000,0.000000,0.000000,0.000000,0.030487,15,0.000000,0.000000,0.000000,0.000000,0.000000,0.000000,0.000000,0.000000,0.000000,0.000000
145,946684902.803436,1,0.018393,0.017628,-9.803100,-0.061037,-0.108646,-0.041505,0.004250,0.000000,0.299540,0.000000,0.000000,0.013805,0.000000,0.001617,0.000000,-0.015249,0.000000,0.000000,0.000000,0.000000,0.000000,0.000000,0.030487,15,0.000000,0.000000,0.000000,0.000000,0.000000,0.000000,0.000000,0.000000,0.000000,0.000000
146,946684902.808441,1,0.018393,0.017628,-9.803100,0.000000,0.135502,0.080569,0.004250,0.000000,0.299540,0.000000,0.000000,0.014610,0.000000,0.001755,0.000000,-0.014846,0.000000,0.000000,0.000000,0.000000,0.000000,0.000000,0.030487,15,0.000000,0.000000,0.000000,0.000000,0.000000,0.000000,0.000000,0.000000,0.000000,0.000000
147,946684902.813446,1,0.018393,0.017628,-9.803100,0.000000,0.013428,-0.102542,0.004250,0.000000,0.299540,0.000000,0.000000,0.014805,0.000000,0.001895,0.000000,-0.015359,0.000000,0.000000,0.000000,0.000000,0.000000,0.000000,0.030487,15,0.000000,0.000000,0.000000,0.000000,0.000000,0.000000,0.000000,0.000000,0.000000,0.000000
148,946684902.818603,1,0.018393,0.017628,-9.803100,0.061037,0.135502,0.019532,0.000000,0.000000,0.299540,0.000000,0.000000,0.015633,0.000000,0.002351,0.000000,-0.015259,0.000000,0.000000,0.000000,0.000000,0.000000,0.000000,0.030487,15,0.000000,0.000000,0.000000,0.000000,0.000000,0.000000,0.000000,0.000000,0.000000,0.000000
149,946684902.823516,1,0.018393,0.017628,-9.803100,0.061037,-0.047609,0.019532,0.000000,0.000000,0.299540,0.000000,0.000000,0.015529,0.000000,0.002793,0.000000,-0.015163,0.000000,0.000000,0.000000,0.000000,0.000000,0.090966,0.032929,16,0.000000,0.000000,0.000000,0.000000,0.000000,0.000000,0.000000,0.000000,0.000000,0.000000
150,946684902.828491,1,0.018393,0.017628,-9.803100,-0.061037,0.013428,0.019532,0.000000,0.000000,0.299540,0.000000,0.000000,0.015728,0.000000,0.002634,0.000000,-0.015066,0.000000,0.000000,0.000000,0.000000,0.000000,0.090966,0.032929,16,0.000000,0.000000,0.000000,0.000000,0.000000,0.000000,0.000000,0.000000,0.000000,0.000000
151,946684902.833496,1,0.018393,0.017628,-9.803100,0.061037,0.135502,-0.041505,0.000000,0.000000,0.299540,0.000000,0.000000,0.016539,0.000000,0.003086,0.000000,-0.015273,0.000000,0.000000,0.000000,0.000000,0.000000,0.090966,0.032929,16,0.000000,0.000000,0.000000,0.000000,0.000000,0.000000,0.000000,0.000000,0.000000,0.000000
152,946684902.838531,1,0.018393,0.017628,-9.803100,0.061037,-0.047609,-0.041505,0.000000,0.000000,0.299540,0.000000,0.000000,0.016434,0.000000,0.003540,0.000000,-0.015482,0.000000,0.000000,0.000000,0.000000,0.000000,0.090966,0.032929,16,0.000000,0.000000,0.000000,0.000000,0.000000,0.000000,0.000000,0.000000,0.000000,0.000000
153,946684902.843536,1,0.018393,0.017628,-9.803100,-0.122074,0.074465,-0.102542,0.000000,0.000000,0.299540,0.000000,0.000000,0.016942,0.000000,0.003079,0.000000,-0.015995,0.000000,0.000000,0.000000,0.000000,0.000000,0.090966,0.032929,16,0.000000,0.000000,0.000000,0.000000,0.000000,0.000000,0.000000,0.000000,0.000000,0.000000
154,946684902.848571,1,0.018393,0.017628,-9.803100,0.000000,0.135502,0.080569,0.000000,0.000000,0.299540,0.000000,0.000000,0.017761,0.000000,0.003230,0.000000,-0.015590,0.000000,0.000000,0.000000,0.000000,0.000000,0.090966,0.032929,16,0.000000,0.000000,0.000000,0.000000,0.000000,0.000000,0.000000,0.000000,0.000000,0.000000
155,946684902.853576,1,0.018393,0.017628,-9.803100,-0.061037,0.074465,0.019532,0.000000,0.000000,0.299540,0.000000,0.000000,0.018271,0.000000,0.003078,0.000000,-0.015492,0.000000,0.000000,0.000000,0.000000,0.000000,0.000000,0.031128,17,0.000000,0.000000,0.000000,0.000000,0.000000,0.000000,0.000000,0.000000,0.000000,0.000000
156,946684902.858703,1,-0.058248,0.017628,-9.803100,0.061037,0.013428,0.019532,-0.004250,0.000000,0.299200,0.000000,0.000000,0.017852,0.000000,0.003547,0.000000,-0.015392,0.000000,0.000000,0.000000,0.000000,0.000000,0.000000,0.031128,17,0.000000,0.000000,0.000000,0.000000,0.000000,0.000000,0.000000,0.000000,0.000000,0.000000
157,946684902.863647,1,-0.058248,0.017628,-9.803100,0.000000,0.013428,0.019532,-0.004250,0.000000,0.299200,0.000000,0.000000,0.017424,0.000000,0.003703,0.000000,-0.015295,0.000000,0.000000,0.000000,0.000000,0.000000,0.000000,0.031128,17,0.000000,0.000000,0.000000,0.000000,0.000000,0.000000,0.000000,0.000000,0.000000,0.000000
158,946684902.868774,1,0.018393,0.017628,-9.803100,0.061037,-0.169683,-0.102542,-0.004250,0.000000,0.299200,0.000000,0.000000,0.016695,0.000000,0.004175,0.000000,-0.015821,0.000000,0.000000,0.000000,0.000000,0.000000,0.000000,0.031128,17,0.000000,0.000000,0.000000,0.000000,0.000000,0.000000,0.000000,0.000000,0.000000,0.000000
159,946684902.873657,1,0.018393,0.017628,-9.803100,0.061037,0.074465,-0.102542,-0.004250,0.000000,0.299200,0.000000,0.000000,0.017200,0.000000,0.004632,0.000000,-0.016322,0.000000,0.000000,0.000000,0.000000,0.000000,0.000000,0.031128,17,0.000000,0.000000,0.000000,0.000000,0.000000,0.000000,0.000000,0.000000,0.000000,0.000000
160,946684902.878692,1,0.018393,0.017628,-9.803100,0.061037,-0.108646,0.019532,-0.004250,0.000000,0.299200,0.000000,0.000000,0.016797,0.000000,0.005100,0.000000,-0.016223,0.000000,0.000000,0.000000,0.000000,0.000000,0.000000,0.031128,17,0.000000,0.000000,0.000000,0.000000,0.000000,0.000000,0.000000,0.000000,0.000000,0.000000
161,946684902.883666,1,0.018393,0.017628,-9.803100,0.122074,0.013428,-0.163579,-0.004250,0.000000,0.299200,0.000000,0.000000,0.017010,0.000000,0.005869,0.000000,-0.017037,0.000000,0.000000,0.000000,0.000000,0.000000,0.000000,0.032257,18,0.000000,0.000000,0.000000,0.000000,0.000000,0.000000,0.000000,0.000000,0.000000,0.000000
162,946684902.888702,1,0.018393,0.017628,-9.803100,0.000000,-0.169683,0.019532,-0.004250,0.000000,0.299200,0.000000,0.000000,0.016304,0.000000,0.006033,0.000000,-0.016939,0.000000,0.000000,0.000000,0.000000,0.000000,0.000000,0.032257,18,0.000000,0.000000,0.000000,0.000000,0.000000,0.000000,0.000000,0.000000,0.000000,0.000000
163,946684902.893707,1,0.018393,0.017628,-9.803100,0.000000,-0.047609,-0.041505,-0.004250,0.000000,0.299200,0.000000,0.000000,0.016217,0.000000,0.006198,0.000000,-0.017146,0.000000,0.000000,0.000000,0.000000,0.000000,0.000000,0.032257,18,0.000000,0.000000,0.000000,0.000000,0.000000,0.000000,0.000000,0.000000,0.000000,0.000000
164,946684902.898834,1,0.018393,0.017628,-9.803100,-0.061037,-0.047609,0.141606,0.000000,0.000000,0.299540,0.000000,0.000000,0.016126,0.000000,0.006053,0.000000,-0.016420,0.000000,0.000000,0.000000,0.000000,0.000000,0.000000,0.032257,18,0.000000,0.000000,0.000000,0.000000,0.000000,0.000000,0.000000,0.000000,0.000000,0.000000
165,946684902.903778,1,0.018393,0.017628,-9.803100,-0.061037,0.013428,0.019532,0.000000,0.000000,0.299540,0.000000,0.000000,0.016347,0.000000,0.005921,0.000000,-0.016324,0.000000,0.000000,0.000000,0.000000,0.000000,0.000000,0.032257,18,0.000000,0.000000,0.000000,0.000000,0.000000,0.000000,0.000000,0.000000,0.000000,0.000000
166,946684902.908782,1,0.018393,0.017628,-9.803100,0.000000,0.074465,-0.041505,0.000000,0.000000,0.299540,0.000000,0.000000,0.016875,0.000000,0.006093,0.000000,-0.016532,0.000000,0.000000,0.000000,0.000000,0.000000,0.000000,0.032257,18,0.000000,0.000000,0.000000,0.000000,0.000000,0.000000,0.000000,0.000000,0.000000,0.000000
167,946684902.913787,1,0.018393,-0.059012,-9.803100,-0.122074,-0.047609,0.019532,0.000000,0.000000,0.299540,0.000000,0.000000,0.016795,0.000000,0.004953,0.000000,-0.016434,0.000000,0.000000,0.000000,0.000000,0.000000,0.000000,0.032257,18,0.000000,0.000000,0.000000,0.000000,0.000000,0.000000,0.000000,0.000000,0.000000,0.000000
168,946684902.918823,1,-0.058248,-0.059012,-9.803100,0.000000,-0.047609,-0.102542,0.000000,0.000000,0.299540,0.000000,0.000000,0.016003,0.000000,0.004416,0.000000,-0.016950,0.000000,0.000000,0.000000,0.000000,0.000000,0.000000,0.033355,19,0.000000,0.000000,0.000000,0.000000,0.000000,0.000000,0.000000,0.000000,0.000000,0.000000
169,946684902.923797,1,-0.058248,-0.059012,-9.803100,0.000000,0.013428,-0.102542,0.000000,0.000000,0.299540,0.000000,0.000000,0.015511,0.000000,0.003873,0.000000,-0.017460,0.000000,0.000000,0.000000,0.000000,0.000000,0.000000,0.033355,19,0.000000,0.000000,0.000000,0.000000,0.000000,0.000000,0.000000,0.000000,0.000000,0.000000
170,946684902.928833,1,0.018393,-0.059012,-9.803100,-0.183111,0.013428,0.019532,0.000000,0.000000,0.299540,0.000000,0.000000,0.015740,0.000000,0.002402,0.000000,-0.017362,0.000000,0.000000,0.000000,0.000000,0.000000,0.000000,0.033355,19,0.000000,0.000000,0.000000,0.000000,0.000000,0.000000,0.000000,0.000000,0.000000,0.000000
171,946684902.933837,1,-0.058248,-0.059012,-9.803100,-0.061037,0.074465,0.019532,0.000000,0.000000,0.299540,0.000000,0.000000,0.015540,0.000000,0.001541,0.000000,-0.017264,0.000000,0.000000,0.000000,0.000000,0.000000,0.000000,0.033355,19,0.000000,0.000000,0.000000,0.000000,0.000000,0.000000,0.000000,0.000000,0.000000,0.000000
172,946684902.939025,1,0.018393,-0.059012,-9.803100,0.000000,0.074465,-0.102542,0.004250,0.000000,0.299540,0.000000,0.000000,0.016088,0.000000,0.000979,0.000000,-0.017796,0.000000,0.000000,0.000000,0.000000,0.000000,0.000000,0.033355,19,0.000000,0.000000,0.000000,0.000000,0.000000,0.000000,0.000000,0.000000,0.000000,0.000000
173,946684902.943908,1,0.018393,0.017628,-9.803100,0.122074,-0.108646,0.080569,0.004250,0.000000,0.299540,0.000000,0.000000,0.015721,0.000000,0.001753,0.000000,-0.017403,0.000000,0.000000,0.000000,0.000000,0.000000,0.000000,0.033355,19,0.000000,0.000000,0.000000,0.000000,0.000000,0.000000,0.000000,0.000000,0.000000,0.000000
174,946684902.948913,1,0.018393,0.017628,-9.803100,0.061037,0.074465,-0.041505,0.004250,0.000000,0.299540,0.000000,0.000000,0.016259,0.000000,0.002238,0.000000,-0.017611,0.000000,0.000000,0.000000,0.000000,0.000000,0.000000,0.032074,20,0.000000,0.000000,0.000000,0.000000,0.000000,0.000000,0.000000,0.000000,0.000000,0.000000
175,946684902.953918,1,0.018393,0.017628,-9.803100,0.061037,0.013428,0.080569,0.004250,0.000000,0.299540,0.000000,0.000000,0.016493,0.000000,0.002725,0.000000,-0.017207,0.000000,0.000000,0.000000,0.000000,0.000000,0.000000,0.032074,20,0.000000,0.000000,0.000000,0.000000,0.000000,0.000000,0.000000,0.000000,0.000000,0.000000
176,946684902.958953,1,0.018393,0.017628,-9.803100,-0.061037,0.074465,0.080569,0.004250,0.000000,0.299540,0.000000,0.000000,0.017037,0.000000,0.002602,0.000000,-0.016802,0.000000,0.000000,0.000000,0.000000,0.000000,0.000000,0.032074,20,0.000000,0.000000,0.000000,0.000000,0.000000,0.000000,0.000000,0.000000,0.000000,0.000000
177,946684902.963958,1,0.018393,0.017628,-9.879741,-0.061037,-0.108646,-0.041505,0.004250,0.000000,0.299540,0.000000,0.000000,0.016662,0.000000,0.002482,0.000000,-0.017009,0.000000,0.000000,0.000000,0.000000,0.000000,0.000000,0.032074,20,0.000000,0.000000,0.000000,0.000000,0.000000,0.000000,0.000000,0.000000,0.000000,0.000000
178,946684902.968994,1,0.018393,0.017628,-9.879741,0.000000,-0.169683,-0.102542,0.004250,0.000000,0.299540,0.000000,0.000000,0.015981,0.000000,0.002670,0.000000,-0.017526,0.000000,0.000000,0.000000,0.000000,0.000000,0.000000,0.032074,20,0.000000,0.000000,0.000000,0.000000,0.000000,0.000000,0.000000,0.000000,0.000000,0.000000
179,946684902.973999,1,0.018393,0.017628,-9.803100,0.000000,-0.047609,0.019532,0.004250,0.000000,0.299540,0.000000,0.000000,0.015919,0.000000,0.002861,0.000000,-0.017428,0.000000,0.000000,0.000000,0.000000,0.000000,0.000000,0.032074,20,0.000000,0.000000,0.000000,0.000000,0.000000,0.000000,0.000000,0.000000,0.000000,0.000000
180,946684902.979125,1,0.018393,0.017628,-9.879741,0.061037,0.013428,0.019532,-0.004250,0.000000,0.299200,0.000000,0.000000,0.016166,0.000000,0.003365,0.000000,-0.017328,0.000000,0.000000,0.000000,0.000000,0.000000,0.000000,0.032074,20,0.000000,0.000000,0.000000,0.000000,0.000000,0.000000,0.000000,0.000000,0.000000,0.000000
181,946684902.984039,1,0.018393,0.017628,-9.879741,0.000000,0.196539,-0.041505,-0.004250,0.000000,0.299200,0.000000,0.000000,0.017309,0.000000,0.003558,0.000000,-0.017532,0.000000,0.000000,0.000000,0.000000,0.000000,0.000000,0.031983,21,0.000000,0.000000,0.000000,0.000000,0.000000,0.000000,0.000000,0.000000,0.000000,0.000000
182,946684902.989044,1,0.018393,0.017628,-9.879741,0.061037,-0.047609,0.080569,-0.004250,0.000000,0.299200,0.000000,0.000000,0.017250,0.000000,0.004058,0.000000,-0.017129,0.000000,0.000000,0.000000,0.000000,0.000000,0.000000,0.031983,21,0.000000,0.000000,0.000000,0.000000,0.000000,0.000000,0.000000,0.000000,0.000000,0.000000
183,946684902.994049,1,0.018393,0.017628,-9.879741,0.000000,0.013428,-0.041505,-0.004250,0.000000,0.299200,0.000000,0.000000,0.017498,0.000000,0.004255,0.000000,-0.017336,0.000000,0.000000,0.000000,0.000000,0.000000,0.000000,0.031983,21,0.000000,0.000000,0.000000,0.000000,0.000000,0.000000,0.000000,0.000000,0.000000,0.000000
