cnt,flyState,setpoint.h [m],setpoint.pitch [deg],setpoint.roll [deg],setpoint.yaw [deg],motval_avg [frac],motval_0 [frac],motval_1 [frac],motval_2 [frac],motval_3 [frac],hor_velocities.xv,hor_velocities.yv,hor_velocities.dt,hor_velocities.seqNum,att.ts [s],att.ax [m/s^2],att.ay [m/s^2],att.az [m/s^2],att.gx [deg/s],att.filtered_gx [deg/s],att.gx_bias_kalman [deg/s],att.gy [deg/s],att.filtered_gy [deg/s],att.gy_bias_kalman [deg/s],att.gz [deg/s],att.hv [m/sec],att.h [m],att.pitch [deg],att.pitch_vel_kalman [deg/s],att.roll [deg],att.roll_vel_kalman [deg/s],att.yaw [deg],att.magx [deg],att.magy [deg],att.magz [deg],xPos [m],yPos [m],targetXVel [m/s],targetYVel [m/s],targetPitch [deg],targetRoll [deg],targetPitchVel [deg/s],targetRollVel [deg/s],adj_pitch,adj_roll,adj_yaw,adj_h
260,1,0.000000,0.000000,0.000000,0.000000,0.000000,0.000000,0.000000,0.000000,0.000000,0.000000,0.000000,0.000000,0,946686749.384643,-0.809325,1.125084,-9.519150,-10.814538,-10.349757,-0.040815,-3.479415,-4.167733,-0.293411,2.242500,0.012752,1.225360,-4.192669,-1.962221,5.267735,-5.478915,5.095013,-65.000000,95.000000,27.000000,0.000000,0.000000,0.000000,0.000000,0.000000,0.000000,0.000000,0.000000,0.000000,0.000000,0.000000,0.000000
261,1,0.000000,0.000000,0.000000,0.000000,0.000000,0.000000,0.000000,0.000000,0.000000,0.000000,0.000000,0.000000,0,946686749.389678,-0.809325,1.125084,-9.519150,-11.119724,-10.695767,-0.083051,-3.052156,-3.726865,-0.280411,1.815241,0.012752,1.225360,-4.219950,-2.071176,5.250797,-5.773974,5.104153,-65.000000,95.000000,27.000000,0.000000,0.000000,0.000000,0.000000,0.000000,0.000000,0.000000,0.000000,0.000000,0.000000,0.000000,0.000000
262,1,0.000000,0.000000,0.000000,0.000000,0.000000,0.000000,0.000000,0.000000,0.000000,0.000000,0.000000,0.000000,0,946686749.394653,-0.809325,1.125084,-9.519150,-11.363872,-10.980740,-0.125180,-2.563860,-3.279394,-0.267395,1.265908,0.012752,1.225360,-4.245310,-2.144720,5.232698,-6.065728,5.110451,-69.000000,95.000000,31.000000,0.000000,0.000000,0.000000,0.000000,0.000000,0.000000,0.000000,0.000000,0.000000,0.000000,0.000000,0.000000
263,1,0.000000,0.000000,0.000000,0.000000,0.000000,0.000000,0.000000,0.000000,0.000000,0.000000,0.000000,0.000000,0,946686749.399810,-0.809325,1.125084,-9.519150,-11.546983,-11.214581,-0.167161,-2.136601,-2.808008,-0.254334,0.716575,0.034004,1.227060,-4.268651,-2.183635,5.213643,-6.351106,5.114146,-69.000000,95.000000,31.000000,0.000000,0.000000,0.000000,0.000000,0.000000,0.000000,0.000000,0.000000,0.000000,0.000000,0.000000,0.000000
264,1,0.000000,0.000000,0.000000,0.000000,0.000000,0.000000,0.000000,0.000000,0.000000,0.000000,0.000000,0.000000,0,946686749.404815,-0.809325,1.048443,-9.519150,-11.546983,-11.400995,-0.198782,-1.709342,-2.363838,-0.241266,0.350352,0.034004,1.227060,-4.290057,-2.191914,5.185388,-6.637689,5.115900,-65.000000,93.000000,27.000000,0.000000,0.000000,0.000000,0.000000,0.000000,0.000000,0.000000,0.000000,0.000000,0.000000,0.000000,0.000000
265,1,0.000000,0.000000,0.000000,0.000000,0.000000,0.000000,0.000000,0.000000,0.000000,0.000000,0.000000,0.000000,0,946686749.409759,-0.809325,1.048443,-9.595791,-11.485946,-11.492550,-0.229310,-1.160008,-1.895754,-0.229009,-0.076907,0.034004,1.227060,-4.308722,-2.169178,5.155962,-6.910593,5.115519,-65.000000,93.000000,27.000000,0.000000,0.000000,0.000000,0.000000,0.000000,0.000000,0.000000,0.000000,0.000000,0.000000,0.000000,0.000000
266,1,0.000000,0.000000,0.000000,0.000000,0.000000,0.000000,0.000000,0.000000,0.000000,0.000000,0.000000,0.000000,0,946686749.414733,-0.809325,1.048443,-9.595791,-11.424909,-11.502856,-0.259786,-0.610675,-1.407458,-0.216652,-0.626240,0.034004,1.227060,-4.325296,-2.116991,5.126608,-7.164437,5.112404,-62.000000,90.000000,22.000000,0.000000,0.000000,0.000000,0.000000,0.000000,0.000000,0.000000,0.000000,0.000000,0.000000,0.000000,0.000000
267,1,0.000000,0.000000,0.000000,0.000000,0.000000,0.000000,0.000000,0.000000,0.000000,0.000000,0.000000,0.000000,0,946686749.419738,-0.809325,1.048443,-9.595791,-10.936613,-11.360170,-0.290023,-0.183416,-0.912558,-0.204179,-0.992462,0.034004,1.227060,-4.339751,-2.036866,5.097883,-7.390683,5.107437,-62.000000,90.000000,22.000000,0.000000,0.000000,0.000000,0.000000,0.000000,0.000000,0.000000,0.000000,0.000000,0.000000,0.000000,0.000000
268,1,0.000000,0.000000,0.000000,0.000000,0.000000,0.000000,0.000000,0.000000,0.000000,0.000000,0.000000,0.000000,0,946686749.424682,-0.809325,0.971803,-9.595791,-10.692465,-11.139936,-0.310238,0.365917,-0.397046,-0.191554,-1.236610,0.034004,1.227060,-4.352013,-1.929323,5.061900,-7.595908,5.101323,-66.000000,88.000000,24.000000,0.000000,0.000000,0.000000,0.000000,0.000000,0.000000,0.000000,0.000000,0.000000,0.000000,0.000000,0.000000
269,1,0.000000,0.000000,0.000000,0.000000,0.000000,0.000000,0.000000,0.000000,0.000000,0.000000,0.000000,0.000000,0,946686749.429687,-0.809325,0.971803,-9.595791,-10.326242,-10.841755,-0.330324,0.793176,0.091251,-0.178806,-1.541795,0.034004,1.227060,-4.362176,-1.797905,5.027293,-7.767126,5.093606,-66.000000,88.000000,24.000000,0.000000,0.000000,0.000000,0.000000,0.000000,0.000000,0.000000,0.000000,0.000000,0.000000,0.000000,0.000000
270,1,0.000000,0.000000,0.000000,0.000000,0.000000,0.000000,0.000000,0.000000,0.000000,0.000000,0.000000,0.000000,0,946686749.434692,-0.809325,0.971803,-9.595791,-10.021057,-10.495745,-0.350232,1.403546,0.593155,-0.165904,-1.846980,0.034004,1.227060,-4.370198,-1.643321,4.994252,-7.903494,5.084362,-63.000000,91.000000,27.000000,0.000000,0.000000,0.000000,0.000000,0.000000,0.000000,0.000000,0.000000,0.000000,0.000000,0.000000,0.000000
271,1,0.000000,0.000000,0.000000,0.000000,0.000000,0.000000,0.000000,0.000000,0.000000,0.000000,0.000000,0.000000,0,946686749.439819,-0.809325,0.971803,-9.672431,-9.532761,-10.146433,-0.369022,1.708732,1.071145,-0.153657,-1.846980,0.021249,1.227060,-4.375489,-1.467838,4.962002,-8.008021,5.074893,-63.000000,91.000000,27.000000,0.000000,0.000000,0.000000,0.000000,0.000000,0.000000,0.000000,0.000000,0.000000,0.000000,0.000000,0.000000
272,1,0.000000,0.000000,0.000000,0.000000,0.000000,0.000000,0.000000,0.000000,0.000000,0.000000,0.000000,0.000000,0,946686749.444854,-0.809325,0.971803,-9.672431,-9.044465,-9.736084,-0.387598,2.258065,1.542531,-0.141246,-1.908017,0.021249,1.227060,-4.378768,-1.274028,4.931598,-8.077974,5.065286,-64.000000,86.000000,28.000000,0.000000,0.000000,0.000000,0.000000,0.000000,0.000000,0.000000,0.000000,0.000000,0.000000,0.000000,0.000000
273,1,0.000000,0.000000,0.000000,0.000000,0.000000,0.000000,0.000000,0.000000,0.000000,0.000000,0.000000,0.000000,0,946686749.449768,-0.809325,0.971803,-9.672431,-8.617206,-9.302222,-0.405935,2.807398,2.037831,-0.128626,-1.969054,0.021249,1.227060,-4.379961,-1.061583,4.903139,-8.114109,5.055610,-64.000000,86.000000,28.000000,0.000000,0.000000,0.000000,0.000000,0.000000,0.000000,0.000000,0.000000,0.000000,0.000000,0.000000,0.000000
274,1,0.000000,0.000000,0.000000,0.000000,0.000000,0.000000,0.000000,0.000000,0.000000,0.000000,0.000000,0.000000,0,946686749.454772,-0.809325,0.971803,-9.672431,-8.067873,-8.817227,-0.423973,3.234657,2.505515,-0.115816,-1.908017,0.021249,1.227060,-4.379174,-0.833512,4.876819,-8.115376,5.046062,-60.000000,90.000000,22.000000,0.000000,0.000000,0.000000,0.000000,0.000000,0.000000,0.000000,0.000000,0.000000,0.000000,0.000000,0.000000
275,1,0.000000,0.000000,0.000000,0.000000,0.000000,0.000000,0.000000,0.000000,0.000000,0.000000,0.000000,0.000000,0,946686749.459747,-0.809325,0.971803,-9.672431,-7.640614,-8.342539,-0.441727,3.661916,2.993811,-0.102773,-1.663869,0.021249,1.227060,-4.376346,-0.589547,4.852614,-8.084722,5.037785,-60.000000,90.000000,22.000000,0.000000,0.000000,0.000000,0.000000,0.000000,0.000000,0.000000,0.000000,0.000000,0.000000,0.000000,0.000000
276,1,0.000000,0.000000,0.000000,0.000000,0.000000,0.000000,0.000000,0.000000,0.000000,0.000000,0.000000,0.000000,0,946686749.464691,-0.732684,0.971803,-9.672431,-7.335429,-7.908676,-0.459252,4.150212,3.461895,-0.098433,-1.480758,0.021249,1.227060,-4.363754,-0.323084,4.830386,-8.026856,5.030463,-65.000000,87.000000,27.000000,0.000000,0.000000,0.000000,0.000000,0.000000,0.000000,0.000000,0.000000,0.000000,0.000000,0.000000,0.000000
277,1,0.000000,0.000000,0.000000,0.000000,0.000000,0.000000,0.000000,0.000000,0.000000,0.000000,0.000000,0.000000,0,946686749.469726,-0.732684,0.971803,-9.672431,-7.091281,-7.528846,-0.476610,4.516434,3.892456,-0.093658,-1.175573,0.021249,1.227060,-4.349484,-0.046643,4.809948,-7.947023,5.024545,-65.000000,87.000000,27.000000,0.000000,0.000000,0.000000,0.000000,0.000000,0.000000,0.000000,0.000000,0.000000,0.000000,0.000000,0.000000
278,1,0.000000,0.000000,0.000000,0.000000,0.000000,0.000000,0.000000,0.000000,0.000000,0.000000,0.000000,0.000000,0,946686749.474700,-0.732684,0.971803,-9.672431,-7.030244,-7.267788,-0.493944,5.004731,4.333324,-0.088424,-0.687277,0.021249,1.227060,-4.333512,0.239743,4.790877,-7.854268,5.021126,-62.000000,86.000000,30.000000,0.000000,0.000000,0.000000,0.000000,0.000000,0.000000,0.000000,0.000000,0.000000,0.000000,0.000000,0.000000
279,1,0.000000,0.000000,0.000000,0.000000,0.000000,0.000000,0.000000,0.000000,0.000000,0.000000,0.000000,0.000000,0,946686749.479858,-0.732684,0.971803,-9.672431,-6.908170,-7.087979,-0.511342,5.309916,4.746974,-0.082751,-0.137944,0.004250,1.227400,-4.315946,0.533645,4.772878,-7.754642,5.020415,-62.000000,86.000000,30.000000,0.000000,0.000000,0.000000,0.000000,0.000000,0.000000,0.000000,0.000000,0.000000,0.000000,0.000000,0.000000
280,1,0.000000,0.000000,0.000000,0.000000,0.000000,0.000000,0.000000,0.000000,0.000000,0.000000,0.000000,0.000000,0,946686749.484863,-0.732684,0.895162,-9.672431,-6.847133,-6.969207,-0.520296,5.554064,5.102890,-0.076697,0.289315,0.004250,1.227400,-4.297007,0.830837,4.748104,-7.661113,5.021863,-62.000000,86.000000,28.000000,0.000000,0.000000,0.000000,0.000000,0.000000,0.000000,0.000000,0.000000,0.000000,0.000000,0.000000,0.000000
281,1,0.000000,0.000000,0.000000,0.000000,0.000000,0.000000,0.000000,0.000000,0.000000,0.000000,0.000000,0.000000,0,946686749.489807,-0.732684,0.895162,-9.672431,-6.786096,-6.891260,-0.529632,5.554064,5.363948,-0.070363,0.594501,0.004250,1.227400,-4.277052,1.124997,4.724142,-7.567630,5.024802,-62.000000,86.000000,28.000000,0.000000,0.000000,0.000000,0.000000,0.000000,0.000000,0.000000,0.000000,0.000000,0.000000,0.000000,0.000000
282,1,0.000000,0.000000,0.000000,0.000000,0.000000,0.000000,0.000000,0.000000,0.000000,0.000000,0.000000,0.000000,0,946686749.494781,-0.732684,0.895162,-9.672431,-6.908170,-6.857439,-0.539382,5.370953,5.458806,-0.063932,1.082797,0.004250,1.227400,-4.256692,1.405654,4.700818,-7.477014,5.030188,-66.000000,96.000000,24.000000,0.000000,0.000000,0.000000,0.000000,0.000000,0.000000,0.000000,0.000000,0.000000,0.000000,0.000000,0.000000
283,1,0.000000,0.000000,0.000000,0.000000,0.000000,0.000000,0.000000,0.000000,0.000000,0.000000,0.000000,0.000000,0,946686749.499786,-0.732684,0.895162,-9.672431,-7.213355,-6.928783,-0.549646,5.248879,5.435292,-0.057525,1.387982,0.004250,1.227400,-4.236376,1.666086,4.677740,-7.395803,5.037134,-66.000000,96.000000,24.000000,0.000000,0.000000,0.000000,0.000000,0.000000,0.000000,0.000000,0.000000,0.000000,0.000000,0.000000,0.000000
284,1,0.000000,0.000000,0.000000,0.000000,0.000000,0.000000,0.000000,0.000000,0.000000,0.000000,0.000000,0.000000,0,946686749.504730,-0.732684,0.895162,-9.672431,-7.152318,-7.019937,-0.560423,4.760583,5.241874,-0.051323,1.876278,0.004250,1.227400,-4.216739,1.896719,4.654816,-7.324644,5.046411,-60.000000,84.000000,20.000000,0.000000,0.000000,0.000000,0.000000,0.000000,0.000000,0.000000,0.000000,0.000000,0.000000,0.000000,0.000000
285,1,0.000000,0.000000,0.000000,0.000000,0.000000,0.000000,0.000000,0.000000,0.000000,0.000000,0.000000,0.000000,0,946686749.509735,-0.732684,0.895162,-9.672431,-7.091281,-7.101187,-0.571679,4.455397,4.963906,-0.045400,2.181463,0.004250,1.227400,-4.198114,2.094071,4.632063,-7.262237,5.057329,-60.000000,84.000000,20.000000,0.000000,0.000000,0.000000,0.000000,0.000000,0.000000,0.000000,0.000000,0.000000,0.000000,0.000000,0.000000
286,1,0.000000,0.000000,0.000000,0.000000,0.000000,0.000000,0.000000,0.000000,0.000000,0.000000,0.000000,0.000000,0,946686749.514709,-0.809325,0.895162,-9.672431,-6.908170,-7.094583,-0.583289,3.967101,4.607990,-0.031694,2.425611,0.004250,1.227400,-4.188225,2.247151,4.609781,-7.202377,5.069394,-57.000000,95.000000,23.000000,0.000000,0.000000,0.000000,0.000000,0.000000,0.000000,0.000000,0.000000,0.000000,0.000000,0.000000,0.000000
287,1,0.000000,0.000000,0.000000,0.000000,0.000000,0.000000,0.000000,0.000000,0.000000,0.000000,0.000000,0.000000,0,946686749.519866,-0.809325,0.895162,-9.672431,-7.030244,-7.040550,-0.595181,3.234657,4.115991,-0.018679,2.791833,-0.012749,1.226040,-4.180056,2.357977,4.588125,-7.141858,5.083791,-57.000000,95.000000,23.000000,0.000000,0.000000,0.000000,0.000000,0.000000,0.000000,0.000000,0.000000,0.000000,0.000000,0.000000,0.000000
288,1,0.000000,0.000000,0.000000,0.000000,0.000000,0.000000,0.000000,0.000000,0.000000,0.000000,0.000000,0.000000,0,946686749.524871,-0.809325,0.895162,-9.672431,-7.030244,-7.010032,-0.607365,2.563250,3.560054,-0.006401,3.219092,-0.012749,1.226040,-4.173868,2.425227,4.567002,-7.082225,5.099903,-61.000000,91.000000,23.000000,0.000000,0.000000,0.000000,0.000000,0.000000,0.000000,0.000000,0.000000,0.000000,0.000000,0.000000,0.000000
289,1,0.000000,0.000000,0.000000,0.000000,0.000000,0.000000,0.000000,0.000000,0.000000,0.000000,0.000000,0.000000,0,946686749.529815,-0.809325,0.895162,-9.672431,-7.152318,-7.030244,-0.619883,2.135991,2.966995,0.005121,3.524277,-0.012749,1.226040,-4.169825,2.449388,4.546215,-7.026666,5.117327,-61.000000,91.000000,23.000000,0.000000,0.000000,0.000000,0.000000,0.000000,0.000000,0.000000,0.000000,0.000000,0.000000,0.000000,0.000000
290,1,0.000000,0.000000,0.000000,0.000000,0.000000,0.000000,0.000000,0.000000,0.000000,0.000000,0.000000,0.000000,0,946686749.534820,-0.809325,0.895162,-9.672431,-7.274392,-7.118498,-0.632795,1.586657,2.376837,0.015912,3.951536,-0.012749,1.226040,-4.167940,2.433485,4.525507,-6.979271,5.137104,-55.000000,93.000000,21.000000,0.000000,0.000000,0.000000,0.000000,0.000000,0.000000,0.000000,0.000000,0.000000,0.000000,0.000000,0.000000
291,1,0.000000,0.000000,0.000000,0.000000,0.000000,0.000000,0.000000,0.000000,0.000000,0.000000,0.000000,0.000000,0,946686749.539825,-0.809325,0.895162,-9.672431,-7.640614,-7.267788,-0.646151,1.220435,1.874932,0.026086,4.317759,-0.012749,1.226040,-4.167915,2.385814,4.504642,-6.943409,5.158714,-55.000000,93.000000,21.000000,0.000000,0.000000,0.000000,0.000000,0.000000,0.000000,0.000000,0.000000,0.000000,0.000000,0.000000,0.000000
292,1,0.000000,0.000000,0.000000,0.000000,0.000000,0.000000,0.000000,0.000000,0.000000,0.000000,0.000000,0.000000,0,946686749.544738,-0.809325,0.818521,-9.672431,-8.128910,-7.539153,-0.652371,0.732139,1.417155,0.035703,4.500870,-0.012749,1.226040,-4.169603,2.311302,4.475970,-6.933874,5.180827,-59.000000,89.000000,23.000000,0.000000,0.000000,0.000000,0.000000,0.000000,0.000000,0.000000,0.000000,0.000000,0.000000,0.000000,0.000000
293,1,0.000000,0.000000,0.000000,0.000000,0.000000,0.000000,0.000000,0.000000,0.000000,0.000000,0.000000,0.000000,0,946686749.549743,-0.809325,0.818521,-9.595791,-8.434095,-7.871154,-0.660040,0.304880,0.962679,0.045420,4.561907,-0.012749,1.226040,-4.173608,2.211293,4.447168,-6.944741,5.203660,-59.000000,89.000000,23.000000,0.000000,0.000000,0.000000,0.000000,0.000000,0.000000,0.000000,0.000000,0.000000,0.000000,0.000000,0.000000
294,1,0.000000,0.000000,0.000000,0.000000,0.000000,0.000000,0.000000,0.000000,0.000000,0.000000,0.000000,0.000000,0,946686749.554718,-0.809325,0.818521,-9.595791,-8.800317,-8.254286,-0.668525,0.060732,0.572943,0.054651,4.683981,-0.012749,1.226040,-4.179087,2.092250,4.417410,-6.978559,5.226962,-64.000000,92.000000,26.000000,0.000000,0.000000,0.000000,0.000000,0.000000,0.000000,0.000000,0.000000,0.000000,0.000000,0.000000,0.000000
295,1,0.000000,0.000000,0.000000,0.000000,0.000000,0.000000,0.000000,0.000000,0.000000,0.000000,0.000000,0.000000,0,946686749.559875,-0.809325,0.741881,-9.595791,-9.166539,-8.630814,-0.670225,-0.183416,0.223631,0.063444,4.989166,-0.055251,1.222980,-4.185896,1.958034,4.379542,-7.040981,5.252691,-64.000000,92.000000,26.000000,0.000000,0.000000,0.000000,0.000000,0.000000,0.000000,0.000000,0.000000,0.000000,0.000000,0.000000,0.000000
296,1,0.000000,0.000000,0.000000,0.000000,0.000000,0.000000,0.000000,0.000000,0.000000,0.000000,0.000000,0.000000,0,946686749.564910,-0.809325,0.741881,-9.595791,-9.532761,-8.983429,-0.672850,-0.366527,-0.047734,0.071882,4.867092,-0.055251,1.222980,-4.193753,1.814660,4.340902,-7.121282,5.277197,-69.000000,87.000000,27.000000,0.000000,0.000000,0.000000,0.000000,0.000000,0.000000,0.000000,0.000000,0.000000,0.000000,0.000000,0.000000
297,1,0.000000,0.000000,0.000000,0.000000,0.000000,0.000000,0.000000,0.000000,0.000000,0.000000,0.000000,0.000000,0,946686749.569824,-0.809325,0.741881,-9.595791,-9.410687,-9.240784,-0.676278,-0.488601,-0.247755,0.080038,4.867092,-0.055251,1.222980,-4.202393,1.667326,4.301824,-7.212147,5.301114,-69.000000,87.000000,27.000000,0.000000,0.000000,0.000000,0.000000,0.000000,0.000000,0.000000,0.000000,0.000000,0.000000,0.000000,0.000000
298,1,0.000000,0.000000,0.000000,0.000000,0.000000,0.000000,0.000000,0.000000,0.000000,0.000000,0.000000,0.000000,0,946686749.574829,-0.809325,0.665240,-9.672431,-9.532761,-9.417291,-0.672506,-0.549638,-0.400348,0.087342,4.683981,-0.055251,1.222980,-4.211048,1.519974,4.255033,-7.315607,5.324557,-57.000000,93.000000,17.000000,0.000000,0.000000,0.000000,0.000000,0.000000,0.000000,0.000000,0.000000,0.000000,0.000000,0.000000,0.000000
299,1,0.000000,0.000000,0.000000,0.000000,0.000000,0.000000,0.000000,0.000000,0.000000,0.000000,0.000000,0.000000,0,946686749.579833,-0.809325,0.665240,-9.672431,-9.593798,-9.512549,-0.669524,-0.732749,-0.532728,0.094440,4.745018,-0.055251,1.222980,-4.220234,1.373327,4.208489,-7.417984,5.348301,-57.000000,93.000000,17.000000,0.000000,0.000000,0.000000,0.000000,0.000000,0.000000,0.000000,0.000000,0.000000,0.000000,0.000000,0.000000
300,1,0.000000,0.000000,0.000000,0.000000,0.000000,0.000000,0.000000,0.000000,0.000000,0.000000,0.000000,0.000000,0,946686749.584777,-0.809325,0.665240,-9.672431,-9.410687,-9.495238,-0.667197,-0.793786,-0.641194,0.101353,4.500870,-0.055251,1.222980,-4.229856,1.228893,4.162599,-7.512095,5.370554,-63.000000,87.000000,21.000000,0.000000,0.000000,0.000000,0.000000,0.000000,0.000000,0.000000,0.000000,0.000000,0.000000,0.000000,0.000000
301,1,0.000000,0.000000,0.000000,0.000000,0.000000,0.000000,0.000000,0.000000,0.000000,0.000000,0.000000,0.000000,0,946686749.589782,-0.809325,0.665240,-9.672431,-9.349651,-9.475026,-0.665510,-0.854823,-0.736051,0.108088,4.256722,-0.055251,1.222980,-4.239856,1.087418,4.117368,-7.598262,5.391859,-63.000000,87.000000,21.000000,0.000000,0.000000,0.000000,0.000000,0.000000,0.000000,0.000000,0.000000,0.000000,0.000000,0.000000,0.000000
302,1,0.000000,0.000000,0.000000,0.000000,0.000000,0.000000,0.000000,0.000000,0.000000,0.000000,0.000000,0.000000,0,946686749.594757,-0.809325,0.665240,-9.672431,-9.227576,-9.393777,-0.664385,-0.976897,-0.837913,0.114632,4.073611,-0.055251,1.222980,-4.250250,0.948278,4.073019,-7.673059,5.412125,-59.000000,87.000000,23.000000,0.000000,0.000000,0.000000,0.000000,0.000000,0.000000,0.000000,0.000000,0.000000,0.000000,0.000000,0.000000
303,1,0.000000,0.000000,0.000000,0.000000,0.000000,0.000000,0.000000,0.000000,0.000000,0.000000,0.000000,0.000000,0,946686749.599914,-0.809325,0.665240,-9.749072,-8.983428,-9.247789,-0.663263,-1.098971,-0.929469,0.120408,3.585314,-0.063750,1.220940,-4.260424,0.812586,4.029319,-7.733533,5.430614,-59.000000,87.000000,23.000000,0.000000,0.000000,0.000000,0.000000,0.000000,0.000000,0.000000,0.000000,0.000000,0.000000,0.000000,0.000000
304,1,0.000000,0.000000,0.000000,0.000000,0.000000,0.000000,0.000000,0.000000,0.000000,0.000000,0.000000,0.000000,0,946686749.604919,-0.809325,0.665240,-9.672431,-8.739280,-9.078285,-0.663079,-1.037934,-0.997109,0.126610,3.219092,-0.063750,1.220940,-4.271425,0.680525,3.987295,-7.778146,5.446725,-62.000000,92.000000,22.000000,0.000000,0.000000,0.000000,0.000000,0.000000,0.000000,0.000000,0.000000,0.000000,0.000000,0.000000,0.000000
305,1,0.000000,0.000000,0.000000,0.000000,0.000000,0.000000,0.000000,0.000000,0.000000,0.000000,0.000000,0.000000,0,946686749.609863,-0.809325,0.665240,-9.672431,-8.373058,-8.834138,-0.663256,-0.915860,-1.014020,0.132691,2.852870,-0.063750,1.220940,-4.282483,0.555688,3.946748,-7.803583,5.460830,-62.000000,92.000000,22.000000,0.000000,0.000000,0.000000,0.000000,0.000000,0.000000,0.000000,0.000000,0.000000,0.000000,0.000000,0.000000
306,1,0.000000,0.000000,0.000000,0.000000,0.000000,0.000000,0.000000,0.000000,0.000000,0.000000,0.000000,0.000000,0,946686749.614837,-0.809325,0.588599,-9.672431,-8.067873,-8.542560,-0.656861,-0.915860,-0.990506,0.138686,2.486648,-0.063750,1.220940,-4.293441,0.440212,3.901070,-7.814948,5.473199,-61.000000,87.000000,23.000000,0.000000,0.000000,0.000000,0.000000,0.000000,0.000000,0.000000,0.000000,0.000000,0.000000,0.000000,0.000000
307,1,0.000000,0.000000,0.000000,0.000000,0.000000,0.000000,0.000000,0.000000,0.000000,0.000000,0.000000,0.000000,0,946686749.619842,-0.809325,0.588599,-9.749072,-7.762689,-8.234074,-0.650488,-0.671712,-0.888644,0.144100,2.181463,-0.063750,1.220940,-4.303439,0.339097,3.856794,-7.805857,5.484117,-61.000000,87.000000,23.000000,0.000000,0.000000,0.000000,0.000000,0.000000,0.000000,0.000000,0.000000,0.000000,0.000000,0.000000,0.000000
308,1,0.000000,0.000000,0.000000,0.000000,0.000000,0.000000,0.000000,0.000000,0.000000,0.000000,0.000000,0.000000,0,946686749.624755,-0.809325,0.588599,-9.749072,-7.701651,-7.969714,-0.644586,-0.366527,-0.725745,0.149566,1.876278,-0.063750,1.220940,-4.312809,0.254788,3.814166,-7.780067,5.493335,-57.000000,87.000000,27.000000,0.000000,0.000000,0.000000,0.000000,0.000000,0.000000,0.000000,0.000000,0.000000,0.000000,0.000000,0.000000
309,1,0.000000,0.000000,0.000000,0.000000,0.000000,0.000000,0.000000,0.000000,0.000000,0.000000,0.000000,0.000000,0,946686749.629791,-0.809325,0.588599,-9.749072,-7.457503,-7.745778,-0.639175,-0.305490,-0.559945,0.155080,1.326945,-0.063750,1.220940,-4.321528,0.186381,3.773032,-7.741251,5.500018,-57.000000,87.000000,27.000000,0.000000,0.000000,0.000000,0.000000,0.000000,0.000000,0.000000,0.000000,0.000000,0.000000,0.000000,0.000000
310,1,0.000000,0.000000,0.000000,0.000000,0.000000,0.000000,0.000000,0.000000,0.000000,0.000000,0.000000,0.000000,0,946686749.634796,-0.809325,0.588599,-9.749072,-7.091281,-7.511536,-0.634227,-0.122379,-0.363225,0.160665,0.899686,-0.063750,1.220940,-4.329472,0.134825,3.733422,-7.689582,5.504520,-52.000000,86.000000,20.000000,0.000000,0.000000,0.000000,0.000000,0.000000,0.000000,0.000000,0.000000,0.000000,0.000000,0.000000,0.000000
311,1,0.000000,0.000000,0.000000,0.000000,0.000000,0.000000,0.000000,0.000000,0.000000,0.000000,0.000000,0.000000,0,946686749.639923,-0.809325,0.588599,-9.749072,-6.664022,-7.233567,-0.629681,0.060732,-0.186718,0.166299,0.350352,-0.093502,1.215500,-4.336706,0.097724,3.695488,-7.623078,5.506317,-52.000000,86.000000,20.000000,0.000000,0.000000,0.000000,0.000000,0.000000,0.000000,0.000000,0.000000,0.000000,0.000000,0.000000,0.000000
312,1,0.000000,0.000000,0.000000,0.000000,0.000000,0.000000,0.000000,0.000000,0.000000,0.000000,0.000000,0.000000,0,946686749.644927,-0.809325,0.511959,-9.749072,-6.358837,-6.891260,-0.618947,-0.061342,-0.098865,0.171894,-0.198981,-0.093502,1.215500,-4.343552,0.068440,3.652892,-7.545114,5.505321,-63.000000,93.000000,19.000000,0.000000,0.000000,0.000000,0.000000,0.000000,0.000000,0.000000,0.000000,0.000000,0.000000,0.000000,0.000000
313,1,0.000000,0.000000,0.000000,0.000000,0.000000,0.000000,0.000000,0.000000,0.000000,0.000000,0.000000,0.000000,0,946686749.649871,-0.809325,0.511959,-9.749072,-6.053651,-6.538646,-0.608656,-0.305490,-0.095563,0.177370,-0.870388,-0.093502,1.215500,-4.350319,0.041035,3.612324,-7.449500,5.501018,-63.000000,93.000000,19.000000,0.000000,0.000000,0.000000,0.000000,0.000000,0.000000,0.000000,0.000000,0.000000,0.000000,0.000000,0.000000
314,1,0.000000,0.000000,0.000000,0.000000,0.000000,0.000000,0.000000,0.000000,0.000000,0.000000,0.000000,0.000000,0,946686749.654876,-0.809325,0.511959,-9.749072,-5.748467,-6.206244,-0.598804,-0.244453,-0.142591,0.182682,-1.419721,-0.093502,1.215500,-4.357193,0.012159,3.573699,-7.338680,5.493913,-59.000000,91.000000,21.000000,0.000000,0.000000,0.000000,0.000000,0.000000,0.000000,0.000000,0.000000,0.000000,0.000000,0.000000,0.000000
315,1,0.000000,0.000000,0.000000,0.000000,0.000000,0.000000,0.000000,0.000000,0.000000,0.000000,0.000000,0.000000,0,946686749.659881,-0.809325,0.435318,-9.672431,-5.382244,-5.887451,-0.583301,-0.549638,-0.288580,0.188272,-2.091128,-0.093502,1.215500,-4.365085,-0.024978,3.530753,-7.220628,5.483447,-59.000000,91.000000,21.000000,0.000000,0.000000,0.000000,0.000000,0.000000,0.000000,0.000000,0.000000,0.000000,0.000000,0.000000,0.000000
316,1,0.000000,0.000000,0.000000,0.000000,0.000000,0.000000,0.000000,0.000000,0.000000,0.000000,0.000000,0.000000,0,946686749.664825,-0.809325,0.435318,-9.672431,-5.199133,-5.592572,-0.568362,-0.671712,-0.437871,0.193597,-2.579425,-0.093502,1.215500,-4.373462,-0.069526,3.489669,-7.091491,5.470694,-58.000000,86.000000,24.000000,0.000000,0.000000,0.000000,0.000000,0.000000,0.000000,0.000000,0.000000,0.000000,0.000000,0.000000,0.000000
317,1,0.000000,0.000000,0.000000,0.000000,0.000000,0.000000,0.000000,0.000000,0.000000,0.000000,0.000000,0.000000,0,946686749.669830,-0.885965,0.435318,-9.672431,-5.199133,-5.372339,-0.554030,-0.915860,-0.597067,0.204943,-3.311869,-0.093502,1.215500,-4.388824,-0.127950,3.450155,-6.956780,5.454118,-58.000000,86.000000,24.000000,0.000000,0.000000,0.000000,0.000000,0.000000,0.000000,0.000000,0.000000,0.000000,0.000000,0.000000,0.000000
318,1,0.000000,0.000000,0.000000,0.000000,0.000000,0.000000,0.000000,0.000000,0.000000,0.000000,0.000000,0.000000,0,946686749.674804,-0.885965,0.358678,-9.672431,-5.016022,-5.199133,-0.534042,-0.976897,-0.780178,0.215863,-3.800165,-0.093502,1.215500,-4.404716,-0.194815,3.405544,-6.826185,5.435216,-56.000000,92.000000,20.000000,0.000000,0.000000,0.000000,0.000000,0.000000,0.000000,0.000000,0.000000,0.000000,0.000000,0.000000,0.000000
319,1,0.000000,0.000000,0.000000,0.000000,0.000000,0.000000,0.000000,0.000000,0.000000,0.000000,0.000000,0.000000,0,946686749.679931,-0.885965,0.358678,-9.672431,-4.832911,-5.066753,-0.514823,-1.037934,-0.905554,0.226416,-4.715720,-0.131750,1.210400,-4.420927,-0.265838,3.362223,-6.696003,5.411038,-56.000000,92.000000,20.000000,0.000000,0.000000,0.000000,0.000000,0.000000,0.000000,0.000000,0.000000,0.000000,0.000000,0.000000,0.000000
320,1,0.000000,0.000000,0.000000,0.000000,0.000000,0.000000,0.000000,0.000000,0.000000,0.000000,0.000000,0.000000,0,946686749.684967,-0.885965,0.358678,-9.672431,-4.832911,-4.965291,-0.496372,-0.915860,-0.966591,0.236664,-5.265054,-0.131750,1.210400,-4.437217,-0.336591,3.320056,-6.568176,5.384523,-61.000000,85.000000,21.000000,0.000000,0.000000,0.000000,0.000000,0.000000,0.000000,0.000000,0.000000,0.000000,0.000000,0.000000,0.000000
321,1,0.000000,0.000000,0.000000,0.000000,0.000000,0.000000,0.000000,0.000000,0.000000,0.000000,0.000000,0.000000,0,946686749.689880,-0.885965,0.358678,-9.672431,-4.771874,-4.860128,-0.478655,-0.793786,-0.936072,0.246691,-5.936461,-0.131750,1.210400,-4.453245,-0.401188,3.279033,-6.442290,5.355358,-61.000000,85.000000,21.000000,0.000000,0.000000,0.000000,0.000000,0.000000,0.000000,0.000000,0.000000,0.000000,0.000000,0.000000,0.000000
322,1,0.000000,0.000000,0.000000,0.000000,0.000000,0.000000,0.000000,0.000000,0.000000,0.000000,0.000000,0.000000,0,946686749.694885,-0.885965,0.282037,-9.672431,-4.893948,-4.829609,-0.455611,-0.671712,-0.854823,0.256543,-6.485794,-0.131750,1.210400,-4.468817,-0.456756,3.232478,-6.329138,5.322896,-65.000000,89.000000,27.000000,0.000000,0.000000,0.000000,0.000000,0.000000,0.000000,0.000000,0.000000,0.000000,0.000000,0.000000,0.000000
323,1,0.000000,0.000000,0.000000,0.000000,0.000000,0.000000,0.000000,0.000000,0.000000,0.000000,0.000000,0.000000,0,946686749.699920,-0.885965,0.282037,-9.672431,-4.893948,-4.846520,-0.433482,-0.366527,-0.691924,0.266293,-6.974090,-0.131750,1.210400,-4.483624,-0.498622,3.186651,-6.225046,5.287781,-65.000000,89.000000,27.000000,0.000000,0.000000,0.000000,0.000000,0.000000,0.000000,0.000000,0.000000,0.000000,0.000000,0.000000,0.000000
324,1,0.000000,0.000000,0.000000,0.000000,0.000000,0.000000,0.000000,0.000000,0.000000,0.000000,0.000000,0.000000,0,946686749.704833,-0.885965,0.282037,-9.672431,-5.138096,-4.921165,-0.412289,0.060732,-0.451078,0.276010,-7.523423,-0.131750,1.210400,-4.497368,-0.522660,3.141311,-6.133110,5.250819,-62.000000,90.000000,24.000000,0.000000,0.000000,0.000000,0.000000,0.000000,0.000000,0.000000,0.000000,0.000000,0.000000,0.000000,0.000000
325,1,0.000000,0.000000,0.000000,0.000000,0.000000,0.000000,0.000000,0.000000,0.000000,0.000000,0.000000,0.000000,0,946686749.709838,-0.885965,0.282037,-9.672431,-5.260170,-5.043239,-0.392042,0.549028,-0.112073,0.285778,-7.889645,-0.131750,1.210400,-4.509675,-0.523716,3.096255,-6.055556,5.211331,-62.000000,90.000000,24.000000,0.000000,0.000000,0.000000,0.000000,0.000000,0.000000,0.000000,0.000000,0.000000,0.000000,0.000000,0.000000
326,1,0.000000,0.000000,0.000000,0.000000,0.000000,0.000000,0.000000,0.000000,0.000000,0.000000,0.000000,0.000000,0,946686749.714813,-0.885965,0.282037,-9.749072,-5.626392,-5.226350,-0.372593,0.915250,0.291272,0.295118,-8.438978,-0.131750,1.210400,-4.519729,-0.498615,3.051049,-5.995513,5.169348,-57.000000,89.000000,23.000000,0.000000,0.000000,0.000000,0.000000,0.000000,0.000000,0.000000,0.000000,0.000000,0.000000,0.000000,0.000000
327,1,0.000000,0.000000,0.000000,0.000000,0.000000,0.000000,0.000000,0.000000,0.000000,0.000000,0.000000,0.000000,0,946686749.719970,-0.885965,0.282037,-9.749072,-6.175726,-5.538539,-0.354198,1.525620,0.759356,0.304630,-8.805200,-0.080752,1.209040,-4.527854,-0.445418,3.005367,-5.959944,5.123939,-57.000000,89.000000,23.000000,0.000000,0.000000,0.000000,0.000000,0.000000,0.000000,0.000000,0.000000,0.000000,0.000000,0.000000,0.000000
328,1,0.000000,0.000000,0.000000,0.000000,0.000000,0.000000,0.000000,0.000000,0.000000,0.000000,0.000000,0.000000,0,946686749.724975,-0.809325,0.358678,-9.749072,-6.480911,-5.887451,-0.342654,2.197028,1.288477,0.308610,-9.354533,-0.080752,1.209040,-4.527666,-0.356247,2.965231,-5.943746,5.077120,-65.000000,87.000000,19.000000,0.000000,0.000000,0.000000,0.000000,0.000000,0.000000,0.000000,0.000000,0.000000,0.000000,0.000000,0.000000
329,1,0.000000,0.000000,0.000000,0.000000,0.000000,0.000000,0.000000,0.000000,0.000000,0.000000,0.000000,0.000000,0,946686749.729919,-0.809325,0.358678,-9.749072,-7.213355,-6.369143,-0.332130,2.563250,1.806891,0.312926,-9.781792,-0.080752,1.209040,-4.525423,-0.239692,2.923851,-5.959732,5.028759,-65.000000,87.000000,19.000000,0.000000,0.000000,0.000000,0.000000,0.000000,0.000000,0.000000,0.000000,0.000000,0.000000,0.000000,0.000000
330,1,0.000000,0.000000,0.000000,0.000000,0.000000,0.000000,0.000000,0.000000,0.000000,0.000000,0.000000,0.000000,0,946686749.734924,-0.809325,0.282037,-9.749072,-7.640614,-6.874349,-0.316911,3.173620,2.366530,0.317613,-10.086977,-0.080752,1.209040,-4.520967,-0.094906,2.874974,-6.013024,4.978274,-56.000000,94.000000,24.000000,0.000000,0.000000,0.000000,0.000000,0.000000,0.000000,0.000000,0.000000,0.000000,0.000000,0.000000,0.000000
331,1,0.000000,0.000000,0.000000,0.000000,0.000000,0.000000,0.000000,0.000000,0.000000,0.000000,0.000000,0.000000,0,946686749.739929,-0.809325,0.358678,-9.749072,-7.945799,-7.331727,-0.308437,4.089175,2.990910,0.322726,-10.453200,-0.080752,1.209040,-4.514047,0.080412,2.831095,-6.086862,4.925955,-56.000000,94.000000,24.000000,0.000000,0.000000,0.000000,0.000000,0.000000,0.000000,0.000000,0.000000,0.000000,0.000000,0.000000,0.000000
332,1,0.000000,0.000000,0.000000,0.000000,0.000000,0.000000,0.000000,0.000000,0.000000,0.000000,0.000000,0.000000,0,946686749.744842,-0.809325,0.358678,-9.749072,-8.250984,-7.765990,-0.300879,4.455397,3.576965,0.328233,-10.697348,-0.080752,1.209040,-4.504806,0.281775,2.786087,-6.183828,4.873398,-61.000000,81.000000,17.000000,0.000000,0.000000,0.000000,0.000000,0.000000,0.000000,0.000000,0.000000,0.000000,0.000000,0.000000,0.000000
333,1,0.000000,0.000000,0.000000,0.000000,0.000000,0.000000,0.000000,0.000000,0.000000,0.000000,0.000000,0.000000,0,946686749.749847,-0.732684,0.358678,-9.749072,-8.434095,-8.071175,-0.294116,5.065767,4.204245,0.328610,-10.880459,-0.080752,1.209040,-4.487043,0.515710,2.740423,-6.294061,4.818941,-61.000000,81.000000,17.000000,0.000000,0.000000,0.000000,0.000000,0.000000,0.000000,0.000000,0.000000,0.000000,0.000000,0.000000,0.000000
334,1,0.000000,0.000000,0.000000,0.000000,0.000000,0.000000,0.000000,0.000000,0.000000,0.000000,0.000000,0.000000,0,946686749.754852,-0.732684,0.358678,-9.749072,-8.495132,-8.288106,-0.288062,5.554064,4.787799,0.329501,-11.185644,-0.080752,1.209040,-4.467044,0.771895,2.694427,-6.410976,4.762957,-58.000000,88.000000,22.000000,0.000000,0.000000,0.000000,0.000000,0.000000,0.000000,0.000000,0.000000,0.000000,0.000000,0.000000,0.000000
335,1,0.000000,0.000000,0.000000,0.000000,0.000000,0.000000,0.000000,0.000000,0.000000,0.000000,0.000000,0.000000,0,946686749.760009,-0.732684,0.358678,-9.749072,-8.617206,-8.451005,-0.282664,5.920286,5.255482,0.330817,-11.185644,-0.042498,1.207000,-4.445249,1.041382,2.648298,-6.530625,4.705273,-58.000000,88.000000,22.000000,0.000000,0.000000,0.000000,0.000000,0.000000,0.000000,0.000000,0.000000,0.000000,0.000000,0.000000,0.000000
336,1,0.000000,0.000000,0.000000,0.000000,0.000000,0.000000,0.000000,0.000000,0.000000,0.000000,0.000000,0.000000,0,946686749.765014,-0.732684,0.358678,-9.749072,-8.861354,-8.596994,-0.277897,6.103397,5.669134,0.332521,-11.490829,-0.042498,1.207000,-4.421871,1.319790,2.602095,-6.651707,4.647762,-59.000000,87.000000,21.000000,0.000000,0.000000,0.000000,0.000000,0.000000,0.000000,0.000000,0.000000,0.000000,0.000000,0.000000,0.000000
337,1,0.000000,0.000000,0.000000,0.000000,0.000000,0.000000,0.000000,0.000000,0.000000,0.000000,0.000000,0.000000,0,946686749.769958,-0.656044,0.358678,-9.749072,-8.861354,-8.712064,-0.273729,6.469619,6.011841,0.329146,-11.368755,-0.042498,1.207000,-4.391221,1.607394,2.555933,-6.772106,4.591555,-59.000000,87.000000,21.000000,0.000000,0.000000,0.000000,0.000000,0.000000,0.000000,0.000000,0.000000,0.000000,0.000000,0.000000,0.000000
338,1,0.000000,0.000000,0.000000,0.000000,0.000000,0.000000,0.000000,0.000000,0.000000,0.000000,0.000000,0.000000,0,946686749.774932,-0.656044,0.358678,-9.749072,-9.227576,-8.888571,-0.270198,6.713767,6.300116,0.326182,-11.612903,-0.042498,1.207000,-4.359558,1.894847,2.509578,-6.895792,4.533792,-56.000000,88.000000,22.000000,0.000000,0.000000,0.000000,0.000000,0.000000,0.000000,0.000000,0.000000,0.000000,0.000000,0.000000,0.000000
339,1,0.000000,0.000000,0.000000,0.000000,0.000000,0.000000,0.000000,0.000000,0.000000,0.000000,0.000000,0.000000,0,946686749.779968,-0.656044,0.358678,-9.825712,-9.471724,-9.098898,-0.267127,6.591693,6.482827,0.323198,-11.307718,-0.042498,1.207000,-4.326897,2.175686,2.462679,-7.024894,4.476847,-56.000000,88.000000,22.000000,0.000000,0.000000,0.000000,0.000000,0.000000,0.000000,0.000000,0.000000,0.000000,0.000000,0.000000,0.000000
340,1,0.000000,0.000000,0.000000,0.000000,0.000000,0.000000,0.000000,0.000000,0.000000,0.000000,0.000000,0.000000,0,946686749.784912,-0.656044,0.358678,-9.749072,-9.898983,-9.363259,-0.264942,6.530656,6.584689,0.320857,-11.307718,-0.042498,1.207000,-4.294356,2.444404,2.415464,-7.162122,4.420942,-57.000000,89.000000,23.000000,0.000000,0.000000,0.000000,0.000000,0.000000,0.000000,0.000000,0.000000,0.000000,0.000000,0.000000,0.000000
341,1,0.000000,0.000000,0.000000,0.000000,0.000000,0.000000,0.000000,0.000000,0.000000,0.000000,0.000000,0.000000,0,946686749.789916,-0.732684,0.358678,-9.749072,-10.082094,-9.671745,-0.263471,6.652730,6.615608,0.324021,-11.246681,-0.042498,1.207000,-4.267704,2.692228,2.367541,-7.309938,4.364663,-57.000000,89.000000,23.000000,0.000000,0.000000,0.000000,0.000000,0.000000,0.000000,0.000000,0.000000,0.000000,0.000000,0.000000,0.000000
342,1,0.000000,0.000000,0.000000,0.000000,0.000000,0.000000,0.000000,0.000000,0.000000,0.000000,0.000000,0.000000,0,946686749.794860,-0.732684,0.282037,-9.749072,-10.387279,-9.963322,-0.257431,6.530656,6.578085,0.327270,-11.063570,-0.042498,1.207000,-4.241263,2.921158,2.313082,-7.471823,4.309965,-61.000000,89.000000,25.000000,0.000000,0.000000,0.000000,0.000000,0.000000,0.000000,0.000000,0.000000,0.000000,0.000000,0.000000,0.000000
343,1,0.000000,0.000000,0.000000,0.000000,0.000000,0.000000,0.000000,0.000000,0.000000,0.000000,0.000000,0.000000,0,946686749.800018,-0.732684,0.282037,-9.825712,-10.814538,-10.289120,-0.252054,6.286508,6.510043,0.330201,-10.941495,-0.101998,1.200880,-4.214734,3.130836,2.257742,-7.644122,4.253529,-61.000000,89.000000,25.000000,0.000000,0.000000,0.000000,0.000000,0.000000,0.000000,0.000000,0.000000,0.000000,0.000000,0.000000,0.000000
344,1,0.000000,0.000000,0.000000,0.000000,0.000000,0.000000,0.000000,0.000000,0.000000,0.000000,0.000000,0.000000,0,946686749.805023,-0.732684,0.282037,-9.825712,-11.241797,-10.628125,-0.247492,6.469619,6.476623,0.333245,-10.575273,-0.101998,1.200880,-4.188440,3.324361,2.201636,-7.826817,4.200600,-54.000000,92.000000,20.000000,0.000000,0.000000,0.000000,0.000000,0.000000,0.000000,0.000000,0.000000,0.000000,0.000000,0.000000,0.000000
345,1,0.000000,0.000000,0.000000,0.000000,0.000000,0.000000,0.000000,0.000000,0.000000,0.000000,0.000000,0.000000,0,946686749.809967,-0.732684,0.282037,-9.825712,-11.302835,-10.946518,-0.243720,5.859249,6.296414,0.336297,-10.453200,-0.101998,1.200880,-4.162958,3.493315,2.144838,-8.017861,4.148918,-54.000000,92.000000,20.000000,0.000000,0.000000,0.000000,0.000000,0.000000,0.000000,0.000000,0.000000,0.000000,0.000000,0.000000,0.000000
346,1,0.000000,0.000000,0.000000,0.000000,0.000000,0.000000,0.000000,0.000000,0.000000,0.000000,0.000000,0.000000,0,946686749.814971,-0.732684,0.205396,-9.825712,-11.424909,-11.204275,-0.235600,5.737175,6.096393,0.339351,-10.270089,-0.101998,1.200880,-4.138379,3.638014,2.081812,-8.217881,4.097527,-60.000000,94.000000,20.000000,0.000000,0.000000,0.000000,0.000000,0.000000,0.000000,0.000000,0.000000,0.000000,0.000000,0.000000,0.000000
347,1,0.000000,0.000000,0.000000,0.000000,0.000000,0.000000,0.000000,0.000000,0.000000,0.000000,0.000000,0.000000,0,946686749.819976,-0.732684,0.205396,-9.825712,-11.669057,-11.404697,-0.228264,5.309916,5.839037,0.342369,-10.025940,-0.101998,1.200880,-4.114938,3.756338,2.018607,-8.417665,4.047348,-60.000000,94.000000,20.000000,0.000000,0.000000,0.000000,0.000000,0.000000,0.000000,0.000000,0.000000,0.000000,0.000000,0.000000,0.000000
348,1,0.000000,0.000000,0.000000,0.000000,0.000000,0.000000,0.000000,0.000000,0.000000,0.000000,0.000000,0.000000,0,946686749.824890,-0.732684,0.205396,-9.825712,-11.730094,-11.533374,-0.221650,5.004731,5.482721,0.345285,-9.903867,-0.101998,1.200880,-4.093027,3.843627,1.955498,-8.612566,3.998680,-59.000000,91.000000,21.000000,0.000000,0.000000,0.000000,0.000000,0.000000,0.000000,0.000000,0.000000,0.000000,0.000000,0.000000,0.000000
349,1,0.000000,0.000000,0.000000,0.000000,0.000000,0.000000,0.000000,0.000000,0.000000,0.000000,0.000000,0.000000,0,946686749.829895,-0.732684,0.205396,-9.825712,-11.730094,-11.645142,-0.215739,4.577472,5.157323,0.348126,-9.842830,-0.101998,1.200880,-4.072543,3.903897,1.892551,-8.801770,3.949416,-59.000000,91.000000,21.000000,0.000000,0.000000,0.000000,0.000000,0.000000,0.000000,0.000000,0.000000,0.000000,0.000000,0.000000,0.000000
350,1,0.000000,0.000000,0.000000,0.000000,0.000000,0.000000,0.000000,0.000000,0.000000,0.000000,0.000000,0.000000,0,946686749.834899,-0.732684,0.205396,-9.902353,-11.730094,-11.716485,-0.210391,4.211249,4.777493,0.350491,-9.598681,-0.101998,1.200880,-4.053289,3.935771,1.829805,-8.983109,3.901385,-57.000000,87.000000,19.000000,0.000000,0.000000,0.000000,0.000000,0.000000,0.000000,0.000000,0.000000,0.000000,0.000000,0.000000,0.000000
351,1,0.000000,0.000000,0.000000,0.000000,0.000000,0.000000,0.000000,0.000000,0.000000,0.000000,0.000000,0.000000,0,946686749.840026,-0.732684,0.205396,-9.825712,-11.608020,-11.702877,-0.205744,3.661916,4.367144,0.353094,-9.537645,-0.101998,1.198840,-4.036232,3.938421,1.767825,-9.151383,3.852485,-57.000000,87.000000,19.000000,0.000000,0.000000,0.000000,0.000000,0.000000,0.000000,0.000000,0.000000,0.000000,0.000000,0.000000,0.000000
352,1,0.000000,0.000000,0.000000,0.000000,0.000000,0.000000,0.000000,0.000000,0.000000,0.000000,0.000000,0.000000,0,946686749.845062,-0.732684,0.128756,-9.825712,-11.363872,-11.614623,-0.196742,3.234657,3.922975,0.355542,-9.476608,-0.101998,1.198840,-4.021090,3.911928,1.701127,-9.307624,3.804760,-56.000000,92.000000,24.000000,0.000000,0.000000,0.000000,0.000000,0.000000,0.000000,0.000000,0.000000,0.000000,0.000000,0.000000,0.000000
353,1,0.000000,0.000000,0.000000,0.000000,0.000000,0.000000,0.000000,0.000000,0.000000,0.000000,0.000000,0.000000,0,946686749.849975,-0.656044,0.128756,-9.825712,-11.241797,-11.485946,-0.188334,2.563250,3.421070,0.352959,-9.293496,-0.101998,1.198840,-4.002484,3.859353,1.635590,-9.445280,3.759102,-56.000000,92.000000,24.000000,0.000000,0.000000,0.000000,0.000000,0.000000,0.000000,0.000000,0.000000,0.000000,0.000000,0.000000,0.000000
354,1,0.000000,0.000000,0.000000,0.000000,0.000000,0.000000,0.000000,0.000000,0.000000,0.000000,0.000000,0.000000,0,946686749.854980,-0.656044,0.128756,-9.825712,-11.119724,-11.330051,-0.180492,1.830806,2.830912,0.350209,-9.293496,-0.101998,1.198840,-3.986434,3.772069,1.571324,-9.563777,3.712588,-56.000000,88.000000,22.000000,0.000000,0.000000,0.000000,0.000000,0.000000,0.000000,0.000000,0.000000,0.000000,0.000000,0.000000,0.000000
355,1,0.000000,0.000000,0.000000,0.000000,0.000000,0.000000,0.000000,0.000000,0.000000,0.000000,0.000000,0.000000,0,946686749.860015,-0.656044,0.128756,-9.825712,-10.692465,-11.112720,-0.173165,1.098361,2.183419,0.347248,-9.110385,-0.101998,1.198840,-3.973165,3.648655,1.508566,-9.660374,3.666717,-56.000000,88.000000,22.000000,0.000000,0.000000,0.000000,0.000000,0.000000,0.000000,0.000000,0.000000,0.000000,0.000000,0.000000,0.000000
356,1,0.000000,0.000000,0.000000,0.000000,0.000000,0.000000,0.000000,0.000000,0.000000,0.000000,0.000000,0.000000,0,946686749.864929,-0.656044,0.128756,-9.825712,-10.448316,-10.878878,-0.166330,0.304880,1.450975,0.344014,-9.232459,-0.101998,1.198840,-3.963011,3.486007,1.447384,-9.735409,3.621349,-60.000000,86.000000,18.000000,0.000000,0.000000,0.000000,0.000000,0.000000,0.000000,0.000000,0.000000,0.000000,0.000000,0.000000,0.000000
357,1,0.000000,0.000000,0.000000,0.000000,0.000000,0.000000,0.000000,0.000000,0.000000,0.000000,0.000000,0.000000,0,946686749.869903,-0.656044,0.052115,-9.825712,-10.265206,-10.624824,-0.155228,-0.305490,0.728837,0.340508,-9.171422,-0.101998,1.198840,-3.955936,3.287368,1.382293,-9.793739,3.575730,-60.000000,86.000000,18.000000,0.000000,0.000000,0.000000,0.000000,0.000000,0.000000,0.000000,0.000000,0.000000,0.000000,0.000000,0.000000
358,1,0.000000,0.000000,0.000000,0.000000,0.000000,0.000000,0.000000,0.000000,0.000000,0.000000,0.000000,0.000000,0,946686749.874908,-0.656044,0.052115,-9.825712,-10.204169,-10.397586,-0.144694,-0.915860,0.040520,0.336750,-9.293496,-0.101998,1.198840,-3.951813,3.057291,1.318818,-9.833605,3.529216,-61.000000,85.000000,25.000000,0.000000,0.000000,0.000000,0.000000,0.000000,0.000000,0.000000,0.000000,0.000000,0.000000,0.000000,0.000000
359,1,0.000000,0.000000,0.000000,0.000000,0.000000,0.000000,0.000000,0.000000,0.000000,0.000000,0.000000,0.000000,0,946686749.880035,-0.656044,0.052115,-9.825712,-9.960020,-10.221079,-0.134749,-1.587267,-0.624284,0.332748,-9.415570,-0.008506,1.200200,-3.950549,2.799364,1.256763,-9.859457,3.480942,-61.000000,85.000000,25.000000,0.000000,0.000000,0.000000,0.000000,0.000000,0.000000,0.000000,0.000000,0.000000,0.000000,0.000000,0.000000
360,1,0.000000,0.000000,0.000000,0.000000,0.000000,0.000000,0.000000,0.000000,0.000000,0.000000,0.000000,0.000000,0,946686749.885070,-0.656044,0.052115,-9.825712,-9.532761,-10.000445,-0.125350,-2.258675,-1.265172,0.328508,-9.537645,-0.008506,1.200200,-3.952049,2.516972,1.196294,-9.869338,3.432921,-54.000000,88.000000,20.000000,0.000000,0.000000,0.000000,0.000000,0.000000,0.000000,0.000000,0.000000,0.000000,0.000000,0.000000,0.000000
361,1,0.000000,0.000000,0.000000,0.000000,0.000000,0.000000,0.000000,0.000000,0.000000,0.000000,0.000000,0.000000,0,946686749.890014,-0.656044,0.052115,-9.825712,-9.410687,-9.773607,-0.116481,-3.052156,-1.950188,0.323992,-9.964904,-0.008506,1.200200,-3.956475,2.208887,1.137430,-9.863869,3.383653,-54.000000,88.000000,20.000000,0.000000,0.000000,0.000000,0.000000,0.000000,0.000000,0.000000,0.000000,0.000000,0.000000,0.000000,0.000000
362,1,0.000000,0.000000,0.000000,0.000000,0.000000,0.000000,0.000000,0.000000,0.000000,0.000000,0.000000,0.000000,0,946686749.894989,-0.656044,-0.024526,-9.825712,-9.105502,-9.498941,-0.103500,-3.723563,-2.655415,0.319174,-10.025940,-0.008506,1.200200,-3.963898,1.875511,1.074872,-9.845573,3.333774,-52.000000,88.000000,24.000000,0.000000,0.000000,0.000000,0.000000,0.000000,0.000000,0.000000,0.000000,0.000000,0.000000,0.000000,0.000000
363,1,0.000000,0.000000,0.000000,0.000000,0.000000,0.000000,0.000000,0.000000,0.000000,0.000000,0.000000,0.000000,0,946686749.900024,-0.656044,-0.024526,-9.825712,-8.800317,-9.217270,-0.091067,-4.272896,-3.333426,0.314062,-10.331126,-0.008506,1.200200,-3.974205,1.520279,1.014183,-9.810402,3.281757,-52.000000,88.000000,24.000000,0.000000,0.000000,0.000000,0.000000,0.000000,0.000000,0.000000,0.000000,0.000000,0.000000,0.000000,0.000000
364,1,0.000000,0.000000,0.000000,0.000000,0.000000,0.000000,0.000000,0.000000,0.000000,0.000000,0.000000,0.000000,0,946686749.904968,-0.656044,-0.024526,-9.825712,-8.434095,-8.939301,-0.079170,-4.883266,-3.984621,0.308663,-10.575273,-0.008506,1.200200,-3.987283,1.146375,0.955342,-9.759673,3.229473,-50.000000,86.000000,22.000000,0.000000,0.000000,0.000000,0.000000,0.000000,0.000000,0.000000,0.000000,0.000000,0.000000,0.000000,0.000000
365,1,0.000000,0.000000,0.000000,0.000000,0.000000,0.000000,0.000000,0.000000,0.000000,0.000000,0.000000,0.000000,0,946686749.909942,-0.656044,-0.024526,-9.902353,-8.067873,-8.603598,-0.067765,-5.127415,-4.510040,0.302749,-10.819422,-0.008506,1.200200,-4.002274,0.763465,0.898578,-9.690646,3.175657,-50.000000,86.000000,22.000000,0.000000,0.000000,0.000000,0.000000,0.000000,0.000000,0.000000,0.000000,0.000000,0.000000,0.000000,0.000000
366,1,0.000000,0.000000,0.000000,0.000000,0.000000,0.000000,0.000000,0.000000,0.000000,0.000000,0.000000,0.000000,0,946686749.914916,-0.656044,-0.024526,-9.902353,-7.640614,-8.237376,-0.056805,-5.493637,-4.950908,0.296666,-11.368755,-0.008506,1.200200,-4.019196,0.377333,0.843988,-9.602540,3.119109,-59.000000,91.000000,21.000000,0.000000,0.000000,0.000000,0.000000,0.000000,0.000000,0.000000,0.000000,0.000000,0.000000,0.000000,0.000000
367,1,0.000000,0.000000,0.000000,0.000000,0.000000,0.000000,0.000000,0.000000,0.000000,0.000000,0.000000,0.000000,0,946686749.920440,-0.656044,-0.024526,-9.902353,-7.213355,-7.840636,-0.046255,-5.615711,-5.283309,0.290470,-11.673940,0.038251,1.201900,-4.037612,-0.004785,0.791684,-9.494615,3.054623,-59.000000,91.000000,21.000000,0.000000,0.000000,0.000000,0.000000,0.000000,0.000000,0.000000,0.000000,0.000000,0.000000,0.000000,0.000000
368,1,0.000000,0.000000,0.000000,0.000000,0.000000,0.000000,0.000000,0.000000,0.000000,0.000000,0.000000,0.000000,0,946686749.925415,-0.656044,-0.024526,-9.978993,-6.908170,-7.454201,-0.036115,-5.615711,-5.473024,0.283952,-12.040162,0.038251,1.201900,-4.056597,-0.373631,0.741632,-9.368809,2.994722,-53.000000,85.000000,25.000000,0.000000,0.000000,0.000000,0.000000,0.000000,0.000000,0.000000,0.000000,0.000000,0.000000,0.000000,0.000000
369,1,0.000000,0.000000,0.000000,0.000000,0.000000,0.000000,0.000000,0.000000,0.000000,0.000000,0.000000,0.000000,0,946686749.930114,-0.656044,-0.024526,-9.978993,-6.419874,-7.047154,-0.026345,-5.737785,-5.615711,0.277418,-12.345347,0.038251,1.201900,-4.076299,-0.727293,0.693888,-9.224956,2.936711,-53.000000,85.000000,25.000000,0.000000,0.000000,0.000000,0.000000,0.000000,0.000000,0.000000,0.000000,0.000000,0.000000,0.000000,0.000000
370,1,0.000000,0.000000,0.000000,0.000000,0.000000,0.000000,0.000000,0.000000,0.000000,0.000000,0.000000,0.000000,0,946686749.935119,-0.656044,-0.024526,-9.978993,-6.053651,-6.650414,-0.016937,-5.615711,-5.649531,0.270925,-12.772606,0.038251,1.201900,-4.096270,-1.059717,0.648403,-9.064890,2.872784,-51.000000,89.000000,25.000000,0.000000,0.000000,0.000000,0.000000,0.000000,0.000000,0.000000,0.000000,0.000000,0.000000,0.000000,0.000000
371,1,0.000000,0.000000,0.000000,0.000000,0.000000,0.000000,0.000000,0.000000,0.000000,0.000000,0.000000,0.000000,0,946686749.940155,-0.656044,-0.024526,-9.978993,-5.504318,-6.223155,-0.007852,-5.249489,-5.567882,0.264529,-13.016754,0.038251,1.201900,-4.116038,-1.364823,0.605285,-8.887692,2.807232,-51.000000,89.000000,25.000000,0.000000,0.000000,0.000000,0.000000,0.000000,0.000000,0.000000,0.000000,0.000000,0.000000,0.000000,0.000000
372,1,0.000000,0.000000,0.000000,0.000000,0.000000,0.000000,0.000000,0.000000,0.000000,0.000000,0.000000,0.000000,0,946686749.945007,-0.656044,-0.024526,-9.978993,-4.893948,-5.724552,0.000971,-5.188452,-5.446208,0.258243,-13.382976,0.038251,1.201900,-4.135420,-1.641799,0.564800,-8.689871,2.742299,-57.000000,89.000000,21.000000,0.000000,0.000000,0.000000,0.000000,0.000000,0.000000,0.000000,0.000000,0.000000,0.000000,0.000000,0.000000
373,1,0.000000,0.000000,0.000000,0.000000,0.000000,0.000000,0.000000,0.000000,0.000000,0.000000,0.000000,0.000000,0,946686749.950012,-0.656044,-0.024526,-9.978993,-4.405652,-5.212742,0.009558,-5.005341,-5.259795,0.252093,-13.566088,0.038251,1.201900,-4.154139,-1.888293,0.526988,-8.471917,2.674401,-57.000000,89.000000,21.000000,0.000000,0.000000,0.000000,0.000000,0.000000,0.000000,0.000000,0.000000,0.000000,0.000000,0.000000,0.000000
374,1,0.000000,0.000000,0.000000,0.000000,0.000000,0.000000,0.000000,0.000000,0.000000,0.000000,0.000000,0.000000,0,946686749.955017,-0.579403,-0.024526,-9.978993,-3.856319,-4.663409,0.017948,-4.578082,-5.015247,0.241912,-13.810235,0.038251,1.201900,-4.166761,-2.098307,0.491984,-8.232723,2.605280,-53.000000,85.000000,23.000000,0.000000,0.000000,0.000000,0.000000,0.000000,0.000000,0.000000,0.000000,0.000000,0.000000,0.000000,0.000000
375,1,0.000000,0.000000,0.000000,0.000000,0.000000,0.000000,0.000000,0.000000,0.000000,0.000000,0.000000,0.000000,0,946686749.960083,-0.579403,-0.024526,-9.978993,-3.490097,-4.158202,0.026131,-4.272896,-4.764495,0.231958,-13.932310,0.021249,1.201900,-4.178478,-2.277847,0.459606,-7.976524,2.534699,-53.000000,85.000000,23.000000,0.000000,0.000000,0.000000,0.000000,0.000000,0.000000,0.000000,0.000000,0.000000,0.000000,0.000000,0.000000
376,1,0.000000,0.000000,0.000000,0.000000,0.000000,0.000000,0.000000,0.000000,0.000000,0.000000,0.000000,0.000000,0,946686749.965118,-0.579403,-0.024526,-9.902353,-3.001801,-3.686816,0.034113,-3.906674,-4.439098,0.222507,-14.115421,0.021249,1.201900,-4.189280,-2.424328,0.429696,-7.706628,2.463627,-59.000000,89.000000,17.000000,0.000000,0.000000,0.000000,0.000000,0.000000,0.000000,0.000000,0.000000,0.000000,0.000000,0.000000,0.000000
377,1,0.000000,0.000000,0.000000,0.000000,0.000000,0.000000,0.000000,0.000000,0.000000,0.000000,0.000000,0.000000,0,946686749.970031,-0.579403,-0.024526,-9.902353,-2.757653,-3.273165,0.041866,-3.601489,-4.089785,0.213318,-14.298532,0.021249,1.201900,-4.198746,-2.538135,0.402026,-7.427651,2.393379,-59.000000,89.000000,17.000000,0.000000,0.000000,0.000000,0.000000,0.000000,0.000000,0.000000,0.000000,0.000000,0.000000,0.000000,0.000000
378,1,0.000000,0.000000,0.000000,0.000000,0.000000,0.000000,0.000000,0.000000,0.000000,0.000000,0.000000,0.000000,0,946686749.975036,-0.579403,-0.024526,-9.902353,-2.574541,-2.947768,0.049353,-3.296304,-3.767690,0.204364,-14.481642,0.021249,1.201900,-4.206965,-2.623162,0.376236,-7.145884,2.320898,-53.000000,85.000000,21.000000,0.000000,0.000000,0.000000,0.000000,0.000000,0.000000,0.000000,0.000000,0.000000,0.000000,0.000000,0.000000
379,1,0.000000,0.000000,0.000000,0.000000,0.000000,0.000000,0.000000,0.000000,0.000000,0.000000,0.000000,0.000000,0,946686749.980041,-0.579403,-0.024526,-9.902353,-2.513505,-2.706922,0.056541,-2.624897,-3.367247,0.195686,-14.664754,0.021249,1.201900,-4.213614,-2.676236,0.351977,-6.866972,2.247501,-53.000000,85.000000,21.000000,0.000000,0.000000,0.000000,0.000000,0.000000,0.000000,0.000000,0.000000,0.000000,0.000000,0.000000,0.000000
380,1,0.000000,0.000000,0.000000,0.000000,0.000000,0.000000,0.000000,0.000000,0.000000,0.000000,0.000000,0.000000,0,946686749.984954,-0.579403,-0.024526,-9.902353,-2.147282,-2.503198,0.063427,-2.380749,-2.974209,0.187274,-14.908901,0.021249,1.201900,-4.218707,-2.699928,0.329083,-6.593126,2.174254,-58.000000,90.000000,16.000000,0.000000,0.000000,0.000000,0.000000,0.000000,0.000000,0.000000,0.000000,0.000000,0.000000,0.000000,0.000000
381,1,0.000000,0.000000,0.000000,0.000000,0.000000,0.000000,0.000000,0.000000,0.000000,0.000000,0.000000,0.000000,0,946686749.989990,-0.579403,-0.024526,-9.902353,-1.964171,-2.303177,0.070027,-1.892453,-2.543648,0.179144,-14.786829,0.021249,1.201900,-4.222085,-2.693742,0.307517,-6.324254,2.099787,-58.000000,90.000000,16.000000,0.000000,0.000000,0.000000,0.000000,0.000000,0.000000,0.000000,0.000000,0.000000,0.000000,0.000000,0.000000
382,1,0.000000,0.000000,0.000000,0.000000,0.000000,0.000000,0.000000,0.000000,0.000000,0.000000,0.000000,0.000000,0,946686749.994964,-0.579403,-0.024526,-9.902353,-1.903134,-2.123768,0.076348,-1.648305,-2.136601,0.171278,-14.908901,0.021249,1.201900,-4.223826,-2.661160,0.287177,-6.061362,2.025630,-57.000000,85.000000,21.000000,0.000000,0.000000,0.000000,0.000000,0.000000,0.000000,0.000000,0.000000,0.000000,0.000000,0.000000,0.000000
383,1,0.000000,0.000000,0.000000,0.000000,0.000000,0.000000,0.000000,0.000000,0.000000,0.000000,0.000000,0.000000,0,946686750.000122,-0.579403,-0.024526,-9.902353,-1.781060,-1.947261,0.082404,-1.221045,-1.783987,0.163640,-14.847865,-0.021252,1.200200,-4.224134,-2.607432,0.268031,-5.804247,1.949046,-57.000000,85.000000,21.000000,0.000000,0.000000,0.000000,0.000000,0.000000,0.000000,0.000000,0.000000,0.000000,0.000000,0.000000,0.000000
384,1,0.000000,0.000000,0.000000,0.000000,0.000000,0.000000,0.000000,0.000000,0.000000,0.000000,0.000000,0.000000,0,946686750.005126,-0.579403,-0.024526,-9.902353,-1.536912,-1.801272,0.088195,-0.854823,-1.407458,0.156244,-14.908901,-0.021252,1.200200,-4.222910,-2.532405,0.249940,-5.554505,1.874441,-54.000000,88.000000,16.000000,0.000000,0.000000,0.000000,0.000000,0.000000,0.000000,0.000000,0.000000,0.000000,0.000000,0.000000,0.000000
385,1,0.000000,0.000000,0.000000,0.000000,0.000000,0.000000,0.000000,0.000000,0.000000,0.000000,0.000000,0.000000,0,946686750.010070,-0.579403,-0.024526,-9.902353,-1.353801,-1.645378,0.093743,-0.427564,-1.037934,0.149085,-14.725791,-0.021252,1.200200,-4.220176,-2.437935,0.232922,-5.311013,1.801637,-54.000000,88.000000,16.000000,0.000000,0.000000,0.000000,0.000000,0.000000,0.000000,0.000000,0.000000,0.000000,0.000000,0.000000,0.000000
386,1,0.000000,0.000000,0.000000,0.000000,0.000000,0.000000,0.000000,0.000000,0.000000,0.000000,0.000000,0.000000,0,946686750.015045,-0.656044,0.052115,-9.902353,-1.414838,-1.513398,0.095094,-0.244453,-0.682019,0.146095,-14.481642,-0.021252,1.200200,-4.221032,-2.330165,0.221932,-5.070914,1.729590,-54.000000,88.000000,22.000000,0.000000,0.000000,0.000000,0.000000,0.000000,0.000000,0.000000,0.000000,0.000000,0.000000,0.000000,0.000000
387,1,0.000000,0.000000,0.000000,0.000000,0.000000,0.000000,0.000000,0.000000,0.000000,0.000000,0.000000,0.000000,0,946686750.020080,-0.579403,0.052115,-9.902353,-1.231727,-1.384320,0.096284,0.182806,-0.336009,0.139343,-14.054384,-0.021252,1.200200,-4.215376,-2.202869,0.211820,-4.837980,1.658827,-54.000000,88.000000,22.000000,0.000000,0.000000,0.000000,0.000000,0.000000,0.000000,0.000000,0.000000,0.000000,0.000000,0.000000,0.000000
388,1,0.000000,0.000000,0.000000,0.000000,0.000000,0.000000,0.000000,0.000000,0.000000,0.000000,0.000000,0.000000,0,946686750.024993,-0.656044,0.052115,-9.902353,-0.926542,-1.241633,0.097335,0.426954,-0.017215,0.136698,-13.932310,-0.021252,1.200200,-4.213427,-2.066796,0.202621,-4.610866,1.590378,-57.000000,83.000000,19.000000,0.000000,0.000000,0.000000,0.000000,0.000000,0.000000,0.000000,0.000000,0.000000,0.000000,0.000000,0.000000
389,1,0.000000,0.000000,0.000000,0.000000,0.000000,0.000000,0.000000,0.000000,0.000000,0.000000,0.000000,0.000000,0,946686750.029998,-0.656044,0.052115,-9.978993,-1.048616,-1.147176,0.098253,0.671102,0.264055,0.133923,-13.444014,-0.021252,1.200200,-4.209928,-1.920953,0.194102,-4.392334,1.523091,-57.000000,83.000000,19.000000,0.000000,0.000000,0.000000,0.000000,0.000000,0.000000,0.000000,0.000000,0.000000,0.000000,0.000000,0.000000
390,1,0.000000,0.000000,0.000000,0.000000,0.000000,0.000000,0.000000,0.000000,0.000000,0.000000,0.000000,0.000000,0,946686750.035003,-0.656044,0.052115,-9.902353,-1.231727,-1.096445,0.098982,0.793176,0.521812,0.131521,-13.260902,-0.021252,1.200200,-4.205637,-1.768009,0.186128,-4.184611,1.456720,-62.000000,88.000000,18.000000,0.000000,0.000000,0.000000,0.000000,0.000000,0.000000,0.000000,0.000000,0.000000,0.000000,0.000000,0.000000
391,1,0.000000,0.000000,0.000000,0.000000,0.000000,0.000000,0.000000,0.000000,0.000000,0.000000,0.000000,0.000000,0,946686750.040130,-0.656044,0.052115,-9.902353,-1.536912,-1.180996,0.099479,1.037324,0.732139,0.129211,-12.894680,-0.029755,1.199520,-4.200412,-1.611261,0.178125,-3.995755,1.390608,-62.000000,88.000000,18.000000,0.000000,0.000000,0.000000,0.000000,0.000000,0.000000,0.000000,0.000000,0.000000,0.000000,0.000000,0.000000
392,1,0.000000,0.000000,0.000000,0.000000,0.000000,0.000000,0.000000,0.000000,0.000000,0.000000,0.000000,0.000000,0,946686750.045135,-0.656044,0.052115,-9.902353,-1.597949,-1.357103,0.099702,1.098361,0.901642,0.126974,-12.467421,-0.029755,1.199520,-4.194421,-1.453605,0.169714,-3.830447,1.328208,-57.000000,83.000000,21.000000,0.000000,0.000000,0.000000,0.000000,0.000000,0.000000,0.000000,0.000000,0.000000,0.000000,0.000000,0.000000
393,1,0.000000,0.000000,0.000000,0.000000,0.000000,0.000000,0.000000,0.000000,0.000000,0.000000,0.000000,0.000000,0,946686750.050079,-0.732684,-0.024526,-9.902353,-1.536912,-1.485781,0.103496,1.220435,1.040626,0.128585,-12.406384,-0.029755,1.199520,-4.192739,-1.300907,0.156087,-3.687926,1.266872,-57.000000,83.000000,21.000000,0.000000,0.000000,0.000000,0.000000,0.000000,0.000000,0.000000,0.000000,0.000000,0.000000,0.000000,0.000000
394,1,0.000000,0.000000,0.000000,0.000000,0.000000,0.000000,0.000000,0.000000,0.000000,0.000000,0.000000,0.000000,0,946686750.055084,-0.732684,-0.024526,-9.902353,-1.536912,-1.553822,0.107038,1.220435,1.145790,0.130181,-11.918088,-0.029755,1.199520,-4.190509,-1.151397,0.142489,-3.559125,1.207222,-59.000000,83.000000,21.000000,0.000000,0.000000,0.000000,0.000000,0.000000,0.000000,0.000000,0.000000,0.000000,0.000000,0.000000,0.000000
